[
  {
    "id": "0628-fd837028310f",
    "brand": "いいオフィス",
    "company": "",
    "name": "宮の森 by be co-working",
    "prefecture": "北海道",
    "address": "北海道札幌市中央区宮の森二条 4丁目1-24 ドミニオン宮の森1F be SQUARE内",
    "station": "桑園駅",
    "details": "個室ブース",
    "hours": "",
    "count": "",
    "price": "",
    "url": "https://e-office.space/spaces/hokkaido/hokkaido/sapporoshi/miyanomori-by-be",
    "latitude": 43.063030746707206,
    "longitude": 141.30952175745196
  },
  {
    "id": "0628-672972f443bc",
    "brand": "いいオフィス",
    "company": "",
    "name": "札幌 by Sapporo Nest",
    "prefecture": "北海道",
    "address": "北海道札幌市中央区南二条西3-12-5 K2 SQUARE 7F",
    "station": "大通駅",
    "details": "完全個室ブース",
    "hours": "",
    "count": "",
    "price": "",
    "url": "https://e-office.space/spaces/hokkaido/hokkaido/sapporoshi/sapporo-by-nest",
    "latitude": 43.05817417747236,
    "longitude": 141.3539173048313
  },
  {
    "id": "0628-833a333a38f1",
    "brand": "いいオフィス",
    "company": "",
    "name": "PaO Work 札幌駅 野村不動産札幌ビル",
    "prefecture": "北海道",
    "address": "北海道札幌市北区北7条西2丁目15-1 野村不動産札幌ビル",
    "station": "札幌駅",
    "details": "完全個室ブース",
    "hours": "",
    "count": "",
    "price": "",
    "url": "https://e-office.space/spaces/hokkaido/hokkaido/sapporoshi/paoworksapporoekinomurafudosansapporo-by-pao",
    "latitude": 43.07020739533389,
    "longitude": 141.35189094320094
  },
  {
    "id": "0628-4962c54c2408",
    "brand": "いいオフィス",
    "company": "",
    "name": "PaO Work 大通駅 札幌ノースプラザ",
    "prefecture": "北海道",
    "address": "北海道札幌市中央区北1条西4丁目2-2 札幌ノースプラザ",
    "station": "大通駅",
    "details": "完全個室ブース",
    "hours": "",
    "count": "",
    "price": "",
    "url": "https://e-office.space/spaces/hokkaido/hokkaido/sapporoshi/paoworkodoriekisapporonorthplaza-by-pao",
    "latitude": 43.062306165724756,
    "longitude": 141.3513325872601
  },
  {
    "id": "0628-c042bfffa844",
    "brand": "いいオフィス",
    "company": "",
    "name": "中標津 by MILK",
    "prefecture": "北海道",
    "address": "北海道標津郡中標津町東３条北１丁目6 2F",
    "station": "最寄り駅なし",
    "details": "個室ブース",
    "hours": "",
    "count": "",
    "price": "",
    "url": "https://e-office.space/spaces/hokkaido/hokkaido/shibetsugun/nakashibetsu-by-milk",
    "latitude": 43.55013073886473,
    "longitude": 144.9763835796051
  },
  {
    "id": "0628-c747d3890835",
    "brand": "いいオフィス",
    "company": "",
    "name": "旭川 by Attic Cafe",
    "prefecture": "北海道",
    "address": "北海道旭川市2条通8丁目222-3 2,3F（ミスドの上)",
    "station": "旭川駅",
    "details": "個室ブース",
    "hours": "",
    "count": "",
    "price": "",
    "url": "https://e-office.space/spaces/hokkaido/hokkaido/asahikawashi/asahikawa-by-attic-cafe",
    "latitude": 43.766974302285355,
    "longitude": 142.36019576045967
  },
  {
    "id": "0628-c44b00636489",
    "brand": "いいオフィス",
    "company": "",
    "name": "旭川 by Worcu-pet",
    "prefecture": "北海道",
    "address": "北海道旭川市３条通８丁目８４２-２ 神田館１階",
    "station": "旭川駅",
    "details": "完全個室ブース",
    "hours": "",
    "count": "",
    "price": "",
    "url": "https://e-office.space/spaces/hokkaido/hokkaido/asahikawashi/asahikawa-by-worcu-pet",
    "latitude": 43.767490900821194,
    "longitude": 142.36095157373148
  },
  {
    "id": "0628-91f030de2a49",
    "brand": "いいオフィス",
    "company": "",
    "name": "千歳 by 千歳アルカディア・プラザ",
    "prefecture": "北海道",
    "address": "北海道千歳市柏台南１丁目３番地の１ 千歳アルカディア・プラザ１F",
    "station": "南千歳駅",
    "details": "完全個室ブース",
    "hours": "",
    "count": "",
    "price": "",
    "url": "https://e-office.space/spaces/hokkaido/hokkaido/chitoseshi/chitose-by-plaza",
    "latitude": 42.80940943112033,
    "longitude": 141.67490725363345
  },
  {
    "id": "0628-96be2784b272",
    "brand": "いいオフィス",
    "company": "",
    "name": "札内 by N SPACE",
    "prefecture": "北海道",
    "address": "北海道中川郡幕別町札内桜町83-14 docomoショップ札内店2階",
    "station": "札内駅",
    "details": "完全個室ブース",
    "hours": "",
    "count": "",
    "price": "",
    "url": "https://e-office.space/spaces/hokkaido/hokkaido/nakagawagun/satsunai-by-nspace",
    "latitude": 42.920249852157944,
    "longitude": 143.24099996910718
  },
  {
    "id": "0628-1c4691f4e38d",
    "brand": "いいオフィス",
    "company": "",
    "name": "岩見沢 by エヌコロン",
    "prefecture": "北海道",
    "address": "北海道岩見沢市4条西4丁目1-2 シーテラス2階",
    "station": "岩見沢駅",
    "details": "完全個室ブース",
    "hours": "",
    "count": "",
    "price": "",
    "url": "https://e-office.space/spaces/hokkaido/hokkaido/iwamisawashi/iwamisawa-by-n-colon",
    "latitude": 43.20203250642713,
    "longitude": 141.76341630625026
  },
  {
    "id": "0628-155de9554e42",
    "brand": "いいオフィス",
    "company": "",
    "name": "武蔵小山東口店 by FEEEP",
    "prefecture": "東京都",
    "address": "東京都品川区小山3-14-1 シティタワー武蔵小山A104区画",
    "station": "武蔵小山駅",
    "details": "個室ブース",
    "hours": "",
    "count": "",
    "price": "",
    "url": "https://e-office.space/spaces/hokkaido/hokkaido/shinagawaku/musashikoyama-by-feeep",
    "latitude": 35.62114421933903,
    "longitude": 139.70591532582864
  },
  {
    "id": "0628-4cef1c0006c0",
    "brand": "いいオフィス",
    "company": "",
    "name": "北海道八雲 by ぺコレラ学舎",
    "prefecture": "北海道",
    "address": "北海道二海郡八雲町上八雲296-1",
    "station": "最寄り駅なし",
    "details": "完全個室ブース",
    "hours": "",
    "count": "",
    "price": "",
    "url": "https://e-office.space/spaces/hokkaido/hokkaido/futamigun/yakumo-by-pekolela",
    "latitude": 42.288382985756925,
    "longitude": 140.1560425261057
  },
  {
    "id": "0628-ed4310bcdfa4",
    "brand": "いいオフィス",
    "company": "",
    "name": "三戸 by SANNOHE",
    "prefecture": "青森県",
    "address": "青森県三戸郡三戸町大字川守田字元木平8番地1 アップルドーム2階",
    "station": "三戸駅",
    "details": "個室ブース",
    "hours": "",
    "count": "",
    "price": "",
    "url": "https://e-office.space/spaces/tohoku/aomori/sannohegun/sannohe-by-sannohe",
    "latitude": 40.390229071795346,
    "longitude": 141.26606576343147
  },
  {
    "id": "0628-f3c2c7755f4f",
    "brand": "いいオフィス",
    "company": "",
    "name": "釜石 by co-ba kamaishi marudai",
    "prefecture": "岩手県",
    "address": "岩手県釜石市大平町3-9-1",
    "station": "平田駅",
    "details": "個室ブース",
    "hours": "",
    "count": "",
    "price": "",
    "url": "https://e-office.space/spaces/tohoku/iwate/kamaishishi/kamaishi-by-co-ba",
    "latitude": 39.25693995669284,
    "longitude": 141.89754695659448
  },
  {
    "id": "0628-df16990697cd",
    "brand": "いいオフィス",
    "company": "",
    "name": "仙台苦竹 by STUDIO080",
    "prefecture": "宮城県",
    "address": "宮城県仙台市宮城野区苦竹3丁目1-6",
    "station": "卸町駅",
    "details": "完全個室ブース",
    "hours": "",
    "count": "",
    "price": "",
    "url": "https://e-office.space/spaces/tohoku/miyagi/sendaishi/nigatake-by-studio080",
    "latitude": 38.26926269449345,
    "longitude": 140.92609269684647
  },
  {
    "id": "0628-a892712ce5f0",
    "brand": "いいオフィス",
    "company": "",
    "name": "仙台 by Neo Breakthrough",
    "prefecture": "宮城県",
    "address": "宮城県仙台市青葉区中央4-2-9 SUGA -DUNビル中央",
    "station": "仙台駅",
    "details": "完全個室ブース",
    "hours": "",
    "count": "",
    "price": "",
    "url": "https://e-office.space/spaces/tohoku/miyagi/sendaishi/sendai-by-neobreakthrough",
    "latitude": 38.257572908990255,
    "longitude": 140.87881085679652
  },
  {
    "id": "0628-72fffbb9a223",
    "brand": "いいオフィス",
    "company": "",
    "name": "YOYO仙台駅西口 by PaO",
    "prefecture": "宮城県",
    "address": "宮城県仙台市青葉区中央1-7-39",
    "station": "YOYO仙台駅",
    "details": "完全個室ブース",
    "hours": "",
    "count": "",
    "price": "",
    "url": "https://e-office.space/spaces/tohoku/miyagi/sendaishi/yoyosendai-by-pao",
    "latitude": 38.26258465622399,
    "longitude": 140.8803958700853
  },
  {
    "id": "0628-428473d494dc",
    "brand": "いいオフィス",
    "company": "",
    "name": "momo仙台駅東口",
    "prefecture": "宮城県",
    "address": "宮城県仙台市宮城野区榴岡4丁目4-5",
    "station": "momo仙台駅",
    "details": "完全個室ブース",
    "hours": "",
    "count": "",
    "price": "",
    "url": "https://e-office.space/spaces/tohoku/miyagi/sendaishi/momosendaiekihigashiguchi-by-pao",
    "latitude": 38.25870271218645,
    "longitude": 140.88730465424618
  },
  {
    "id": "0628-287f47865947",
    "brand": "いいオフィス",
    "company": "",
    "name": "NOB仙台駅西口",
    "prefecture": "宮城県",
    "address": "宮城県仙台市青葉区中央3丁目8-5",
    "station": "NOB仙台駅",
    "details": "完全個室ブース",
    "hours": "",
    "count": "",
    "price": "",
    "url": "https://e-office.space/spaces/tohoku/miyagi/sendaishi/nobsendaiekinishiguchi-by-pao",
    "latitude": 38.258864775255944,
    "longitude": 140.87850517986834
  },
  {
    "id": "0628-cb9aaf15e3e2",
    "brand": "いいオフィス",
    "company": "",
    "name": "仙台広瀬通 by COMPASS",
    "prefecture": "宮城県",
    "address": "宮城県仙台市青葉区国分町1丁目8－13 仙台協立第1ビル 1階",
    "station": "あおば通駅",
    "details": "完全個室ブース",
    "hours": "",
    "count": "",
    "price": "",
    "url": "https://e-office.space/spaces/tohoku/miyagi/sendaishi/hirosedori-by-compass",
    "latitude": 38.26152300559377,
    "longitude": 140.86838360244786
  },
  {
    "id": "0628-0b54285cda14",
    "brand": "いいオフィス",
    "company": "",
    "name": "仙台 by cocolin",
    "prefecture": "宮城県",
    "address": "宮城県仙台市若林区清水小路6-1 東日本不動産仙台ファーストビル 2F",
    "station": "五橋駅",
    "details": "個室ブース",
    "hours": "",
    "count": "",
    "price": "",
    "url": "https://e-office.space/spaces/tohoku/miyagi/sendaishi/sendai-by-cocolin",
    "latitude": 38.25201770995952,
    "longitude": 140.88155198419713
  },
  {
    "id": "0628-957c02fa19e5",
    "brand": "いいオフィス",
    "company": "",
    "name": "登米 by SOU",
    "prefecture": "宮城県",
    "address": "宮城県登米市迫町佐沼字大網218-1",
    "station": "最寄り駅なし",
    "details": "個室ブース",
    "hours": "",
    "count": "",
    "price": "",
    "url": "https://e-office.space/spaces/tohoku/miyagi/tome/tome-by-sou",
    "latitude": 38.67890087326614,
    "longitude": 141.1948948306799
  },
  {
    "id": "0628-5a4de627bace",
    "brand": "いいオフィス",
    "company": "",
    "name": "柴田 by カフェ＆コワーキングKitai",
    "prefecture": "宮城県",
    "address": "宮城県柴田郡柴田町船岡中央3丁目7-20",
    "station": "船岡駅",
    "details": "個室ブース",
    "hours": "",
    "count": "",
    "price": "",
    "url": "https://e-office.space/spaces/tohoku/miyagi/shibatagun/shibata-by-kitai",
    "latitude": 38.055022999448624,
    "longitude": 140.76789803770305
  },
  {
    "id": "0628-2eee8f87850b",
    "brand": "いいオフィス",
    "company": "",
    "name": "秋田大仙 by コミュニティスペース GATHER",
    "prefecture": "秋田県",
    "address": "秋田県大仙市佐野町2-4",
    "station": "大曲駅",
    "details": "完全個室ブース",
    "hours": "",
    "count": "",
    "price": "",
    "url": "https://e-office.space/spaces/tohoku/akita/daisenshi/daisen-by-gather",
    "latitude": 39.46969626566937,
    "longitude": 140.4732732313409
  },
  {
    "id": "0628-5d9daf5dfefd",
    "brand": "いいオフィス",
    "company": "",
    "name": "横手 by かま蔵",
    "prefecture": "秋田県",
    "address": "秋田県横手市四日町6-6",
    "station": "横手駅",
    "details": "個室ブース",
    "hours": "",
    "count": "",
    "price": "",
    "url": "https://e-office.space/spaces/tohoku/akita/yokoteshi/yokote-by-kamakura",
    "latitude": 39.31381504723469,
    "longitude": 140.5673862794021
  },
  {
    "id": "0628-aa7fae75d5c3",
    "brand": "いいオフィス",
    "company": "",
    "name": "米沢 by COGO Works",
    "prefecture": "山形県",
    "address": "山形県米沢市中田町751-1",
    "station": "置賜駅",
    "details": "個室ブース",
    "hours": "",
    "count": "",
    "price": "",
    "url": "https://e-office.space/spaces/tohoku/yamagata/yonezawashi/yonezawas-by-cogoworks",
    "latitude": 37.94377567049385,
    "longitude": 140.1291350210607
  },
  {
    "id": "0628-3713b8363f6b",
    "brand": "いいオフィス",
    "company": "",
    "name": "長井 by +２ in タスパークホテル",
    "prefecture": "山形県",
    "address": "山形県長井市館町北6番27号",
    "station": "南長井駅",
    "details": "完全個室ブース",
    "hours": "",
    "count": "",
    "price": "",
    "url": "https://e-office.space/spaces/tohoku/yamagata/nagaishi/nagai-by-plus2",
    "latitude": 38.101311100373714,
    "longitude": 140.0433252625895
  },
  {
    "id": "0628-07190089ee18",
    "brand": "いいオフィス",
    "company": "",
    "name": "南相馬 by aosubashi",
    "prefecture": "福島県",
    "address": "福島県南相馬市小高区東町2-49",
    "station": "小高駅",
    "details": "完全個室ブース",
    "hours": "",
    "count": "",
    "price": "",
    "url": "https://e-office.space/spaces/tohoku/fukushima/minamisomashi/minamisoma-by-aosubashi",
    "latitude": 37.56481294656798,
    "longitude": 140.99615328854318
  },
  {
    "id": "0628-b9316eaf1fa6",
    "brand": "いいオフィス",
    "company": "",
    "name": "会津七日町通り by コボウシ",
    "prefecture": "福島県",
    "address": "福島県会津若松市大町一丁目1-41 ex1ビル 2階",
    "station": "七日町駅",
    "details": "個室ブース",
    "hours": "",
    "count": "",
    "price": "",
    "url": "https://e-office.space/spaces/tohoku/fukushima/aizuwakamatsushi/aizu-by-koboushi",
    "latitude": 37.49880906718752,
    "longitude": 139.92643683148032
  },
  {
    "id": "0628-aafb98d31313",
    "brand": "いいオフィス",
    "company": "",
    "name": "南相馬 by 小高パイオニアヴィレッジ",
    "prefecture": "福島県",
    "address": "福島県南相馬市小高区本町1-87",
    "station": "小高駅",
    "details": "個室ブース",
    "hours": "",
    "count": "",
    "price": "",
    "url": "https://e-office.space/spaces/tohoku/fukushima/somashi/minamisoma-by-poineervillage",
    "latitude": 37.5628397201896,
    "longitude": 140.99172827116502
  },
  {
    "id": "0628-d1780ed959f7",
    "brand": "いいオフィス",
    "company": "",
    "name": "つくば by rooms",
    "prefecture": "茨城県",
    "address": "茨城県つくば市苅間2257-2",
    "station": "研究学園駅",
    "details": "完全個室ブース",
    "hours": "",
    "count": "",
    "price": "",
    "url": "https://e-office.space/spaces/kanto/ibaraki/tsukubashi/tsukuba-by-rooms",
    "latitude": 36.090168180100996,
    "longitude": 140.09494822657433
  },
  {
    "id": "0628-a79e99444e5c",
    "brand": "いいオフィス",
    "company": "",
    "name": "つくば by Studies",
    "prefecture": "茨城県",
    "address": "茨城県つくば市上原747-15-201",
    "station": "つくば駅",
    "details": "完全個室ブース",
    "hours": "",
    "count": "",
    "price": "",
    "url": "https://e-office.space/spaces/kanto/ibaraki/tsukubashi/tsukuba-by-studies",
    "latitude": 36.056890793613704,
    "longitude": 140.12057075706798
  },
  {
    "id": "0628-0d86e4251fe4",
    "brand": "いいオフィス",
    "company": "",
    "name": "阿字ヶ浦 by イバフォルニア・ベース",
    "prefecture": "茨城県",
    "address": "茨城県ひたちなか市阿字ヶ浦町2237-1",
    "station": "阿字ヶ浦駅",
    "details": "完全個室ブース",
    "hours": "",
    "count": "",
    "price": "",
    "url": "https://e-office.space/spaces/kanto/ibaraki/hitachinakashi/ajigaura-by-ibafornia-base",
    "latitude": 36.38407514734516,
    "longitude": 140.61247588540422
  },
  {
    "id": "0628-043ab8c5f03e",
    "brand": "いいオフィス",
    "company": "",
    "name": "高崎問屋町 by iPPO",
    "prefecture": "群馬県",
    "address": "群馬県高崎市問屋町西1-1-3",
    "station": "高崎問屋町駅",
    "details": "完全個室ブース",
    "hours": "",
    "count": "",
    "price": "",
    "url": "https://e-office.space/spaces/kanto/gunma/takasakishi/takasakitonyamachi-by-ippo",
    "latitude": 36.34804748894257,
    "longitude": 139.00602539606626
  },
  {
    "id": "0628-6cd807131ad3",
    "brand": "いいオフィス",
    "company": "",
    "name": "前橋 by 首都圏NSプラザ",
    "prefecture": "群馬県",
    "address": "群馬県前橋市大手町２丁目１５-８",
    "station": "前橋駅",
    "details": "完全個室ブース",
    "hours": "",
    "count": "",
    "price": "",
    "url": "https://e-office.space/spaces/kanto/gunma/maebashishi/maebashi-by-syutoken-nsplaza",
    "latitude": 36.38859189031267,
    "longitude": 139.06562849960596
  },
  {
    "id": "0628-1a37646b9763",
    "brand": "いいオフィス",
    "company": "",
    "name": "那須塩原 by EN-KAKU",
    "prefecture": "栃木県",
    "address": "栃木県那須塩原市本郷町3-14 パラダイスビル 3F",
    "station": "黒磯駅",
    "details": "完全個室ブース",
    "hours": "",
    "count": "",
    "price": "",
    "url": "https://e-office.space/spaces/kanto/tochigi/nasukogen/nasukogen-by-en-kaku",
    "latitude": 36.97778975749612,
    "longitude": 140.0617357404264
  },
  {
    "id": "0628-39d035174375",
    "brand": "いいオフィス",
    "company": "",
    "name": "いいオフィス浦和",
    "prefecture": "埼玉県",
    "address": "埼玉県さいたま市浦和区高砂2-6-13 あずさビル3階",
    "station": "浦和駅",
    "details": "完全個室ブース",
    "hours": "",
    "count": "",
    "price": "",
    "url": "https://e-office.space/spaces/kanto/saitama/saitamashi/urawa-by-iio",
    "latitude": 35.857978894262516,
    "longitude": 139.6544139804459
  },
  {
    "id": "0628-150e905919dd",
    "brand": "いいオフィス",
    "company": "",
    "name": "与野 by 窯茶業",
    "prefecture": "埼玉県",
    "address": "埼玉県さいたま市中央区下落合2-12-11",
    "station": "与野駅",
    "details": "個室ブース",
    "hours": "",
    "count": "",
    "price": "",
    "url": "https://e-office.space/spaces/kanto/saitama/saitamashi/yono-by-kamachagou",
    "latitude": 35.883362556291246,
    "longitude": 139.63544728534367
  },
  {
    "id": "0628-21c4c518e174",
    "brand": "いいオフィス",
    "company": "",
    "name": "大宮 by リブポート大宮",
    "prefecture": "埼玉県",
    "address": "埼玉県さいたま市大宮区宮町1-14 W大宮6F",
    "station": "大宮駅",
    "details": "完全個室ブース",
    "hours": "",
    "count": "",
    "price": "",
    "url": "https://e-office.space/spaces/kanto/saitama/saitamashi/omiya-by-libport",
    "latitude": 35.90829463718876,
    "longitude": 139.6246475314657
  },
  {
    "id": "0628-0f254b2c6e97",
    "brand": "いいオフィス",
    "company": "",
    "name": "大宮 by VORT SPACE 大宮",
    "prefecture": "埼玉県",
    "address": "埼玉県さいたま市大宮区仲町1-15 VORT大宮6F",
    "station": "大宮駅",
    "details": "完全個室ブース",
    "hours": "",
    "count": "",
    "price": "",
    "url": "https://e-office.space/spaces/kanto/saitama/saitamashi/omiya-by-relark",
    "latitude": 35.90511912098127,
    "longitude": 139.62547826918905
  },
  {
    "id": "0628-f6725f761a48",
    "brand": "いいオフィス",
    "company": "",
    "name": "大宮 by ワイムビジネスプラザ大宮",
    "prefecture": "埼玉県",
    "address": "埼玉県さいたま市大宮区宮町1-86-1 大宮イーストビル6F",
    "station": "大宮駅",
    "details": "完全個室ブース",
    "hours": "",
    "count": "",
    "price": "",
    "url": "https://e-office.space/spaces/kanto/saitama/saitamashi/omiya-by-waim",
    "latitude": 35.90841494699443,
    "longitude": 139.62614281133574
  },
  {
    "id": "0628-9e63ffbd2372",
    "brand": "いいオフィス",
    "company": "",
    "name": "PaO Work 大宮 by PaO",
    "prefecture": "埼玉県",
    "address": "埼玉県さいたま市大宮区大門町3-22-3 オリオンビル 5階西側",
    "station": "大宮駅",
    "details": "完全個室ブース",
    "hours": "",
    "count": "",
    "price": "",
    "url": "https://e-office.space/spaces/kanto/saitama/saitamashi/paoworkomiya-by-pao",
    "latitude": 35.906986978187476,
    "longitude": 139.62929019644895
  },
  {
    "id": "0628-3ae4d1e35021",
    "brand": "いいオフィス",
    "company": "",
    "name": "TKP大宮駅西口 by CHATBOX",
    "prefecture": "埼玉県",
    "address": "埼玉県さいたま市大宮区桜木町１丁目8-１ ベルヴュオフィス大宮6階",
    "station": "TKP大宮駅",
    "details": "完全個室ブース",
    "hours": "",
    "count": "",
    "price": "",
    "url": "https://e-office.space/spaces/kanto/saitama/saitamashi/tkp-omiyaekinishiguchi-by-remoteworkbox",
    "latitude": 35.90483115934097,
    "longitude": 139.62110309325408
  },
  {
    "id": "0628-8fe1fa64f5aa",
    "brand": "いいオフィス",
    "company": "",
    "name": "大宮MTビル by CHATBOX",
    "prefecture": "埼玉県",
    "address": "埼玉県さいたま市大宮区宮町2-35 大宮ＭＴビル１F",
    "station": "大宮駅",
    "details": "完全個室ブース",
    "hours": "",
    "count": "",
    "price": "",
    "url": "https://e-office.space/spaces/kanto/saitama/saitamashi/omiya-mtbuild-by-remoteworkbox",
    "latitude": 35.9091078,
    "longitude": 139.6265866
  },
  {
    "id": "0628-75faa853b7eb",
    "brand": "いいオフィス",
    "company": "",
    "name": "熊谷 by しろくまコワーキング",
    "prefecture": "埼玉県",
    "address": "埼玉県熊谷市本町1-222",
    "station": "上熊谷駅",
    "details": "完全個室ブース",
    "hours": "",
    "count": "",
    "price": "",
    "url": "https://e-office.space/spaces/kanto/saitama/kumagayashi/kumagaya-by-shirokuma",
    "latitude": 36.14381967279125,
    "longitude": 139.38477552862935
  },
  {
    "id": "0628-2e5df8ec8f14",
    "brand": "いいオフィス",
    "company": "",
    "name": "NITTOH MALL by CHATBOX",
    "prefecture": "埼玉県",
    "address": "埼玉県熊谷市銀座2丁目245 3F",
    "station": "熊谷駅",
    "details": "完全個室ブース",
    "hours": "",
    "count": "",
    "price": "",
    "url": "https://e-office.space/spaces/kanto/saitama/kumagayashi/nittohmall-by-remoteworkbox",
    "latitude": 36.13907505767279,
    "longitude": 139.39373626580002
  },
  {
    "id": "0628-838826a808a3",
    "brand": "いいオフィス",
    "company": "",
    "name": "上福岡 by 停車場",
    "prefecture": "埼玉県",
    "address": "埼玉県ふじみ野市上福岡1-2-13",
    "station": "上福岡駅",
    "details": "完全個室ブース",
    "hours": "",
    "count": "",
    "price": "",
    "url": "https://e-office.space/spaces/kanto/saitama/fujiminoshi/kamifukuoka-by-teishajo",
    "latitude": 35.873066972516725,
    "longitude": 139.51349008161088
  },
  {
    "id": "0628-a8f913b7fa0d",
    "brand": "いいオフィス",
    "company": "",
    "name": "上尾 by TOKYO NORTH GATE",
    "prefecture": "埼玉県",
    "address": "埼玉県上尾市西門前286番地",
    "station": "北上尾駅",
    "details": "完全個室ブース",
    "hours": "",
    "count": "",
    "price": "",
    "url": "https://e-office.space/spaces/kanto/saitama/ageoshi/ageo-by-tokyonorthgate",
    "latitude": 35.99267628836094,
    "longitude": 139.5797980682234
  },
  {
    "id": "0628-db55119a89cb",
    "brand": "いいオフィス",
    "company": "",
    "name": "志木 by セカンドプレイス志木",
    "prefecture": "埼玉県",
    "address": "埼玉県新座市東北2丁目39-7 生光商事ビル4F",
    "station": "志木駅",
    "details": "完全個室ブース",
    "hours": "",
    "count": "",
    "price": "",
    "url": "https://e-office.space/spaces/kanto/saitama/niizashi/shiki-by-2ndplace",
    "latitude": 35.82316468398351,
    "longitude": 139.5753359574619
  },
  {
    "id": "0628-2eed48d9c112",
    "brand": "いいオフィス",
    "company": "",
    "name": "いいオフィス柏",
    "prefecture": "千葉県",
    "address": "千葉県柏市柏4-5-24 HEISEI 33ビル4階",
    "station": "柏駅",
    "details": "完全個室ブース",
    "hours": "",
    "count": "",
    "price": "",
    "url": "https://e-office.space/spaces/kanto/chiba/kashiwashi/kashiwa-by-iio",
    "latitude": 35.862703,
    "longitude": 139.9740863
  },
  {
    "id": "0628-a4f4a3792a1b",
    "brand": "いいオフィス",
    "company": "",
    "name": "茂原 by コミュニティスペース SAKURAGI",
    "prefecture": "千葉県",
    "address": "千葉県茂原市下永吉344-1 2F",
    "station": "茂原駅",
    "details": "完全個室ブース",
    "hours": "",
    "count": "",
    "price": "",
    "url": "https://e-office.space/spaces/kanto/chiba/mobarashi/mobara-by-sakuragi",
    "latitude": 35.412007012940386,
    "longitude": 140.3010298574755
  },
  {
    "id": "0628-99d39b8f7ab4",
    "brand": "いいオフィス",
    "company": "",
    "name": "千葉EXビル by CHATBOX",
    "prefecture": "千葉県",
    "address": "千葉県千葉市中央区富士見2-14-1 千葉EXビル 8F",
    "station": "葭川公園駅",
    "details": "完全個室ブース",
    "hours": "",
    "count": "",
    "price": "",
    "url": "https://e-office.space/spaces/kanto/chiba/chibashi/chiba-ex-by-remoteworkbox",
    "latitude": 35.60980572962829,
    "longitude": 140.1172454775693
  },
  {
    "id": "0628-8a2483927923",
    "brand": "いいオフィス",
    "company": "",
    "name": "いいオフィス西船橋",
    "prefecture": "千葉県",
    "address": "千葉県船橋市西船4丁目25-5 小﨑ビル4階",
    "station": "西船橋駅",
    "details": "完全個室ブース",
    "hours": "",
    "count": "",
    "price": "",
    "url": "https://e-office.space/spaces/kanto/chiba/funabashishi/nishifunabashi-by-iio",
    "latitude": 35.708422,
    "longitude": 139.9593969
  },
  {
    "id": "0628-825daece9356",
    "brand": "いいオフィス",
    "company": "",
    "name": "津田沼 by MACHI DESK",
    "prefecture": "千葉県",
    "address": "千葉県船橋市前原西2丁目14-2 津田沼駅前安田ビル 4F",
    "station": "津田沼駅",
    "details": "完全個室ブース",
    "hours": "",
    "count": "",
    "price": "",
    "url": "https://e-office.space/spaces/kanto/chiba/funabashishi/tsudanuma-by-machidesk",
    "latitude": 35.692531667057274,
    "longitude": 140.0210335688798
  },
  {
    "id": "0628-fd50701c53e1",
    "brand": "いいオフィス",
    "company": "",
    "name": "いいオフィス船橋",
    "prefecture": "千葉県",
    "address": "千葉県船橋市本町7-4-13 アイケービル2F・3F",
    "station": "船橋駅",
    "details": "個室ブース",
    "hours": "",
    "count": "",
    "price": "",
    "url": "https://e-office.space/spaces/kanto/chiba/funabashishi/funabashi-by-iio",
    "latitude": 35.70224750596236,
    "longitude": 139.98304771655705
  },
  {
    "id": "0628-72d1c4b649f8",
    "brand": "いいオフィス",
    "company": "",
    "name": "成田 by WorkWork",
    "prefecture": "千葉県",
    "address": "千葉県成田市幸町911-1",
    "station": "成田駅",
    "details": "完全個室ブース",
    "hours": "",
    "count": "",
    "price": "",
    "url": "https://e-office.space/spaces/kanto/chiba/naritashi/narita-by-workwork",
    "latitude": 35.78213086424888,
    "longitude": 140.31423286679367
  },
  {
    "id": "0628-a7ea9ee97c63",
    "brand": "いいオフィス",
    "company": "",
    "name": "成田 by GAKUYA",
    "prefecture": "千葉県",
    "address": "千葉県成田市花崎町816 ラ・エント成田5F",
    "station": "京成成田駅",
    "details": "個室ブース",
    "hours": "",
    "count": "",
    "price": "",
    "url": "https://e-office.space/spaces/kanto/chiba/naritashi/narita-by-gakuya",
    "latitude": 35.7774443759318,
    "longitude": 140.3152167265657
  },
  {
    "id": "0628-cfe29b6d94b3",
    "brand": "いいオフィス",
    "company": "",
    "name": "松戸 by リブポート松戸",
    "prefecture": "千葉県",
    "address": "千葉県松戸市本町1-23 Ｗ松戸7階",
    "station": "松戸駅",
    "details": "完全個室ブース",
    "hours": "",
    "count": "",
    "price": "",
    "url": "https://e-office.space/spaces/kanto/chiba/matsudoshi/matsudo-by-libport",
    "latitude": 35.78396462337916,
    "longitude": 139.89970589997827
  },
  {
    "id": "0628-ab2dd980d704",
    "brand": "いいオフィス",
    "company": "",
    "name": "新松戸 by CoworkingSpaceFlat Cafe&Bar",
    "prefecture": "千葉県",
    "address": "千葉県松戸市新松戸3-289 SBC第一ビル2階",
    "station": "幸谷駅",
    "details": "完全個室ブース",
    "hours": "",
    "count": "",
    "price": "",
    "url": "https://e-office.space/spaces/kanto/chiba/matsudoshi/shinmatsudo-by-flat",
    "latitude": 35.823228146934525,
    "longitude": 139.91445998230336
  },
  {
    "id": "0628-fe5347d5f53b",
    "brand": "いいオフィス",
    "company": "",
    "name": "いいオフィス八千代緑が丘",
    "prefecture": "千葉県",
    "address": "千葉県八千代市緑が丘西2丁目2-1 レジデンス八千代",
    "station": "八千代緑が丘駅",
    "details": "完全個室ブース",
    "hours": "",
    "count": "",
    "price": "",
    "url": "https://e-office.space/spaces/kanto/chiba/yachiyoshi/yachiyomidorigaoka-by-iio",
    "latitude": 35.73021059984715,
    "longitude": 140.07117795291805
  },
  {
    "id": "0628-8e467c2e3880",
    "brand": "いいオフィス",
    "company": "",
    "name": "津田沼 by  i-Office TSUDANUMA",
    "prefecture": "千葉県",
    "address": "千葉県習志野市津田沼1丁目3-11 昭和第三ビル6階",
    "station": "新津田沼駅",
    "details": "完全個室ブース",
    "hours": "",
    "count": "",
    "price": "",
    "url": "https://e-office.space/spaces/kanto/chiba/narashinoshi/tsudanuma-by-ioffice",
    "latitude": 35.690024206757315,
    "longitude": 140.02255419574277
  },
  {
    "id": "0628-943dd0619e50",
    "brand": "いいオフィス",
    "company": "",
    "name": "立川 by HAKADORU立川北口店",
    "prefecture": "東京都",
    "address": "東京都立川市曙町2-12-1 曙ビル5階",
    "station": "立川駅",
    "details": "完全個室ブース",
    "hours": "",
    "count": "",
    "price": "",
    "url": "https://e-office.space/spaces/kanto/tokyo/tachikawashi/tachikawa-by-hakadoru",
    "latitude": 35.699209490918435,
    "longitude": 139.4143989270333
  },
  {
    "id": "0628-5832d6596213",
    "brand": "いいオフィス",
    "company": "",
    "name": "立川店 by FEEEP",
    "prefecture": "東京都",
    "address": "東京都立川市曙町2-13-10 S-cubeSouth 4F",
    "station": "立川駅",
    "details": "完全個室ブース",
    "hours": "",
    "count": "",
    "price": "",
    "url": "https://e-office.space/spaces/kanto/tokyo/tachikawashi/tachikawa-by-feeep",
    "latitude": 35.698799303665695,
    "longitude": 139.41512832799015
  },
  {
    "id": "0628-633edfaee8b4",
    "brand": "いいオフィス",
    "company": "",
    "name": "TKP新宿西口 by CHATBOX",
    "prefecture": "東京都",
    "address": "東京都新宿区西新宿1丁目10-1 ヨドバシ新宿西口駅前ビル(旧称：MY新宿第二ビル) 9F",
    "station": "ヨドバシ新宿西口駅",
    "details": "完全個室ブース",
    "hours": "",
    "count": "",
    "price": "",
    "url": "https://e-office.space/spaces/kanto/tokyo/shinjukuku/tkp-shinjukunishiguchi-by-remoteworkbox",
    "latitude": 35.68988357698518,
    "longitude": 139.69824087249788
  },
  {
    "id": "0628-0f84a69e7246",
    "brand": "いいオフィス",
    "company": "",
    "name": "市ヶ谷 by quantum cross point 市ヶ谷",
    "prefecture": "東京都",
    "address": "東京都新宿区市谷田町3-8 市ヶ谷科学技術イノベーションセンタービル 2F",
    "station": "市ケ谷駅",
    "details": "個室ブース",
    "hours": "",
    "count": "",
    "price": "",
    "url": "https://e-office.space/spaces/kanto/tokyo/shinjukuku/ichigaya-by-crosspoint",
    "latitude": 35.69630041509973,
    "longitude": 139.73888600418945
  },
  {
    "id": "0628-af0aa87c9bf7",
    "brand": "いいオフィス",
    "company": "",
    "name": "新宿 by Workmedi 新宿",
    "prefecture": "東京都",
    "address": "東京都新宿区西新宿7-7-26 ワコーレ新宿第一ビル2階",
    "station": "新宿西口駅",
    "details": "完全個室ブース",
    "hours": "",
    "count": "",
    "price": "",
    "url": "https://e-office.space/spaces/kanto/tokyo/shinjukuku/shinjuku-by-workmedi",
    "latitude": 35.69744408328337,
    "longitude": 139.69745537388297
  },
  {
    "id": "0628-17cc394cc3a0",
    "brand": "いいオフィス",
    "company": "",
    "name": "新宿西口店 by FEEEP",
    "prefecture": "東京都",
    "address": "東京都新宿区西新宿1-8-1 新宿ビルディングB2F",
    "station": "新宿駅",
    "details": "完全個室ブース",
    "hours": "",
    "count": "",
    "price": "",
    "url": "https://e-office.space/spaces/kanto/tokyo/shinjukuku/shinjukunishiguchi-by-feeep",
    "latitude": 35.69087378747487,
    "longitude": 139.6968413061337
  },
  {
    "id": "0628-3f6b04237e85",
    "brand": "いいオフィス",
    "company": "",
    "name": "新宿三丁目 by HAKADORU新宿三丁目店",
    "prefecture": "東京都",
    "address": "東京都新宿区新宿３丁目１-２４ 京王新宿三丁目ビル1F",
    "station": "新宿駅",
    "details": "完全個室ブース",
    "hours": "",
    "count": "",
    "price": "",
    "url": "https://e-office.space/spaces/kanto/tokyo/shinjukuku/shinjukusanchome-by-hakadoru",
    "latitude": 35.69023398852522,
    "longitude": 139.70537696874925
  },
  {
    "id": "0628-71ab2d2a96d2",
    "brand": "いいオフィス",
    "company": "",
    "name": "高田馬場 by StudyWork Cafe24 高田馬場店",
    "prefecture": "東京都",
    "address": "東京都新宿区西早稲田2丁目21番5 ホームズ西早稲田1階",
    "station": "高田馬場駅",
    "details": "完全個室ブース",
    "hours": "",
    "count": "",
    "price": "",
    "url": "https://e-office.space/spaces/kanto/tokyo/shinjukuku/takadanobaba-by-studyworkcafe24",
    "latitude": 35.710359237482336,
    "longitude": 139.70986260068503
  },
  {
    "id": "0628-090911a4e56e",
    "brand": "いいオフィス",
    "company": "",
    "name": "いいオフィス新宿大久保",
    "prefecture": "東京都",
    "address": "東京都新宿区大久保 1-12-6 ドン・キホーテ新宿店 B1F",
    "station": "東新宿駅",
    "details": "完全個室ブース",
    "hours": "",
    "count": "",
    "price": "",
    "url": "https://e-office.space/spaces/kanto/tokyo/shinjukuku/shinjukuokubo-by-iio",
    "latitude": 35.69864911364613,
    "longitude": 139.70311264834288
  },
  {
    "id": "0628-710ff599fd13",
    "brand": "いいオフィス",
    "company": "",
    "name": "いいオフィス新宿西口",
    "prefecture": "東京都",
    "address": "東京都新宿区西新宿1-18-15 岡本ビル3F",
    "station": "新宿駅",
    "details": "完全個室ブース",
    "hours": "",
    "count": "",
    "price": "",
    "url": "https://e-office.space/spaces/kanto/tokyo/shinjukuku/shinjukunishiguchi-by-iio",
    "latitude": 35.68886084948315,
    "longitude": 139.69820598414822
  },
  {
    "id": "0628-c56d3a320e29",
    "brand": "いいオフィス",
    "company": "",
    "name": "いいオフィス新宿京王百貨店",
    "prefecture": "東京都",
    "address": "東京都新宿区西新宿１丁目１-４ 京王百貨店4F",
    "station": "新宿駅",
    "details": "個室ブース",
    "hours": "",
    "count": "",
    "price": "",
    "url": "https://e-office.space/spaces/kanto/tokyo/shinjukuku/shinjukukeio-by-iio",
    "latitude": 35.69019081716921,
    "longitude": 139.69910224046941
  },
  {
    "id": "0628-982c3481c1ee",
    "brand": "いいオフィス",
    "company": "",
    "name": "新宿東口店 by FEEEP",
    "prefecture": "東京都",
    "address": "東京都新宿区新宿3-29-11 新盛堂ビル5F",
    "station": "新宿駅",
    "details": "完全個室ブース",
    "hours": "",
    "count": "",
    "price": "",
    "url": "https://e-office.space/spaces/kanto/tokyo/shinjukuku/shinjukuhigashiguchi-by-feeep",
    "latitude": 35.691601716832736,
    "longitude": 139.702730636348
  },
  {
    "id": "0628-e74b92b9bc92",
    "brand": "いいオフィス",
    "company": "",
    "name": "新宿 by ツクル・ワーク",
    "prefecture": "東京都",
    "address": "東京都新宿区西新宿1-25-1 新宿センタービルB1F",
    "station": "新宿駅",
    "details": "個室ブース",
    "hours": "",
    "count": "",
    "price": "",
    "url": "https://e-office.space/spaces/kanto/tokyo/shinjukuku/shinjuku-by-tsukuru",
    "latitude": 35.69148255,
    "longitude": 139.6954784
  },
  {
    "id": "0628-8b712f5972e3",
    "brand": "いいオフィス",
    "company": "",
    "name": "飯田橋店 by FEEEP",
    "prefecture": "東京都",
    "address": "東京都新宿区神楽坂2-16-2 MS I Kagurazaka 1F",
    "station": "飯田橋駅",
    "details": "完全個室ブース",
    "hours": "",
    "count": "",
    "price": "",
    "url": "https://e-office.space/spaces/kanto/tokyo/shinjukuku/iidabashi-by-feeep",
    "latitude": 35.7016020320566,
    "longitude": 139.742429779978
  },
  {
    "id": "0628-4a0c418b1edd",
    "brand": "いいオフィス",
    "company": "",
    "name": "ミニマルワークスペース高田馬場 by PaO",
    "prefecture": "東京都",
    "address": "東京都新宿区高田馬場1-31-8 高田馬場ダイカンプラザ2階210号室",
    "station": "高田馬場駅",
    "details": "完全個室ブース",
    "hours": "",
    "count": "",
    "price": "",
    "url": "https://e-office.space/spaces/kanto/tokyo/shinjukuku/minimalworkspacetakadanobaba-by-pao",
    "latitude": 35.710128594389786,
    "longitude": 139.70331617867382
  },
  {
    "id": "0628-19da6ae2bc33",
    "brand": "いいオフィス",
    "company": "",
    "name": "自遊空間BIGBOX高田馬場 by CHATBOX",
    "prefecture": "東京都",
    "address": "東京都新宿区高田馬場1丁目35-3 ビッグボックス 7F",
    "station": "高田馬場駅",
    "details": "完全個室ブース",
    "hours": "",
    "count": "",
    "price": "",
    "url": "https://e-office.space/spaces/kanto/tokyo/shinjukuku/jiyukukan-bigbox-takadanobaba-by-remoteworkbox",
    "latitude": 35.71285300847127,
    "longitude": 139.70429092637417
  },
  {
    "id": "0628-608f4a4bc2fb",
    "brand": "いいオフィス",
    "company": "",
    "name": "河西ビル by CHATBOX",
    "prefecture": "東京都",
    "address": "東京都新宿区西新宿1-12-12 河西ビル6F",
    "station": "新宿駅",
    "details": "完全個室ブース",
    "hours": "",
    "count": "",
    "price": "",
    "url": "https://e-office.space/spaces/kanto/tokyo/shinjukuku/kawanishibuilding-by-remoteworkbox",
    "latitude": 35.6899880904109,
    "longitude": 139.69728262778057
  },
  {
    "id": "0628-e08bd343e785",
    "brand": "いいオフィス",
    "company": "",
    "name": "TKP市ヶ谷カンファレンスセンター by CHATBOX",
    "prefecture": "東京都",
    "address": "東京都新宿区市谷八幡町８-番地 TKP市ヶ谷ビル1F/4F",
    "station": "市ケ谷駅",
    "details": "完全個室ブース",
    "hours": "",
    "count": "",
    "price": "",
    "url": "https://e-office.space/spaces/kanto/tokyo/shinjukuku/tkp-ichigaya-conferencecenter-by-remoteworkbox",
    "latitude": 35.69241785814946,
    "longitude": 139.73464050861492
  },
  {
    "id": "0628-b5fd7d35f64d",
    "brand": "いいオフィス",
    "company": "",
    "name": "ビズボ新宿三丁目駅前 by PaO",
    "prefecture": "東京都",
    "address": "東京都新宿区新宿3丁目12-4",
    "station": "ビズボ新宿三丁目駅",
    "details": "完全個室ブース",
    "hours": "",
    "count": "",
    "price": "",
    "url": "https://e-office.space/spaces/kanto/tokyo/shinjukuku/bizboshinjukusanchomeekimae-by-pao",
    "latitude": 35.691989325536895,
    "longitude": 139.70615483717734
  },
  {
    "id": "0628-91d61674509d",
    "brand": "いいオフィス",
    "company": "",
    "name": "PaO Work 405新宿 by Pao",
    "prefecture": "東京都",
    "address": "東京都新宿区西新宿7丁目17-14",
    "station": "新宿西口駅",
    "details": "完全個室ブース",
    "hours": "",
    "count": "",
    "price": "",
    "url": "https://e-office.space/spaces/kanto/tokyo/shinjukuku/paowork405shinjuku-by-pao",
    "latitude": 35.69661306010509,
    "longitude": 139.6973513105408
  },
  {
    "id": "0628-bf3c3a9a450a",
    "brand": "いいオフィス",
    "company": "",
    "name": "Aivicワークブース西新宿 by PaO",
    "prefecture": "東京都",
    "address": "東京都新宿区西新宿8丁目19-1",
    "station": "大久保駅",
    "details": "完全個室ブース",
    "hours": "",
    "count": "",
    "price": "",
    "url": "https://e-office.space/spaces/kanto/tokyo/shinjukuku/aivicworkboothnishishinjuku-by-pao",
    "latitude": 35.69548881141496,
    "longitude": 139.6906963290399
  },
  {
    "id": "0628-a6b3e46a7632",
    "brand": "いいオフィス",
    "company": "",
    "name": "ビズボ新宿三丁目駅前2nd by PaO",
    "prefecture": "東京都",
    "address": "東京都新宿区新宿5丁目18-20",
    "station": "ビズボ新宿三丁目駅",
    "details": "完全個室ブース",
    "hours": "",
    "count": "",
    "price": "",
    "url": "https://e-office.space/spaces/kanto/tokyo/shinjukuku/bizboshinjukusanchomeekimae2nd-by-pao",
    "latitude": 35.69391310305949,
    "longitude": 139.7063646763711
  },
  {
    "id": "0628-5610bc8534d8",
    "brand": "いいオフィス",
    "company": "",
    "name": "PaO Work 新宿 by PaO",
    "prefecture": "東京都",
    "address": "東京都新宿区西新宿7-17-14 新宿エイコービル 4階402号室",
    "station": "新宿西口駅",
    "details": "完全個室ブース",
    "hours": "",
    "count": "",
    "price": "",
    "url": "https://e-office.space/spaces/kanto/tokyo/shinjukuku/paoworkshinjuku-by-pao",
    "latitude": 35.69650294255657,
    "longitude": 139.69733166701647
  },
  {
    "id": "0628-e284fc148d25",
    "brand": "いいオフィス",
    "company": "",
    "name": "ワークブース大久保 by PaO",
    "prefecture": "東京都",
    "address": "東京都新宿区百人町1-23-17 大久保南口共同ビル 3階302号室",
    "station": "大久保駅",
    "details": "完全個室ブース",
    "hours": "",
    "count": "",
    "price": "",
    "url": "https://e-office.space/spaces/kanto/tokyo/shinjukuku/workboothokubo-by-pao",
    "latitude": 35.70008357437061,
    "longitude": 139.69755043754637
  },
  {
    "id": "0628-02fb7948abe3",
    "brand": "いいオフィス",
    "company": "",
    "name": "町田成瀬 by TENT成瀬",
    "prefecture": "東京都",
    "address": "東京都町田市南成瀬1-2-1 成瀬駅前ハイツ2号棟102",
    "station": "成瀬駅",
    "details": "個室ブース",
    "hours": "",
    "count": "",
    "price": "",
    "url": "https://e-office.space/spaces/kanto/tokyo/machidashi/naruse-by-tent",
    "latitude": 35.536490242633086,
    "longitude": 139.47347146887543
  },
  {
    "id": "0628-dfd24310820a",
    "brand": "いいオフィス",
    "company": "",
    "name": "町田 by Oasis",
    "prefecture": "東京都",
    "address": "東京都町田市原町田4-11-13 天野ビル４F",
    "station": "町田駅",
    "details": "完全個室ブース",
    "hours": "",
    "count": "",
    "price": "",
    "url": "https://e-office.space/spaces/kanto/tokyo/machidashi/machida-by-oasis",
    "latitude": 35.54236312644693,
    "longitude": 139.4487975169086
  },
  {
    "id": "0628-2061cba2882b",
    "brand": "いいオフィス",
    "company": "",
    "name": "SpemaBOX_町田モディ by PaO",
    "prefecture": "東京都",
    "address": "東京都町田市原町田6-2-6 町田モディ9階",
    "station": "町田駅",
    "details": "完全個室ブース",
    "hours": "",
    "count": "",
    "price": "",
    "url": "https://e-office.space/spaces/kanto/tokyo/machidashi/paoworkmachidamodi-by-pao",
    "latitude": 35.54326043050329,
    "longitude": 139.44513590809356
  },
  {
    "id": "0628-d56649a387f3",
    "brand": "いいオフィス",
    "company": "",
    "name": "御茶ノ水駅前 by BOTTOS 没頭作業カフェ",
    "prefecture": "東京都",
    "address": "東京都千代田区神田駿河台2丁目6-10 田中ビル 2-4階",
    "station": "御茶ノ水駅",
    "details": "完全個室ブース",
    "hours": "",
    "count": "",
    "price": "",
    "url": "https://e-office.space/spaces/kanto/tokyo/chiyodaku/ochanomizuekimae-by-bottosworkcafe",
    "latitude": 35.69963506536638,
    "longitude": 139.76411943754056
  },
  {
    "id": "0628-65ca3d77286e",
    "brand": "いいオフィス",
    "company": "",
    "name": "秋葉原 by Working Studio 秋葉原",
    "prefecture": "東京都",
    "address": "東京都千代田区外神田4-7-3 田中ビル 1階（受付）8階（店舗）",
    "station": "末広町駅",
    "details": "完全個室ブース",
    "hours": "",
    "count": "",
    "price": "",
    "url": "https://e-office.space/spaces/kanto/tokyo/chiyodaku/akihabara-by-workingStudio",
    "latitude": 35.702598303355536,
    "longitude": 139.77199427384977
  },
  {
    "id": "0628-23788bbc16bb",
    "brand": "いいオフィス",
    "company": "",
    "name": "神田 by Share Office  結う",
    "prefecture": "東京都",
    "address": "東京都千代田区鍛冶町1-8-8 神田鍛冶町ビル1階",
    "station": "神田駅",
    "details": "完全個室ブース",
    "hours": "",
    "count": "",
    "price": "",
    "url": "https://e-office.space/spaces/kanto/tokyo/chiyodaku/kanda-by-shareoffice-you",
    "latitude": 35.69110903801908,
    "longitude": 139.7733496912249
  },
  {
    "id": "0628-3dcc4ead8d15",
    "brand": "いいオフィス",
    "company": "",
    "name": "ビズボ神田南口 by PaO",
    "prefecture": "東京都",
    "address": "東京都千代田区鍛治町1-4-6",
    "station": "神田駅",
    "details": "完全個室ブース",
    "hours": "",
    "count": "",
    "price": "",
    "url": "https://e-office.space/spaces/kanto/tokyo/chiyodaku/bizbokandaminamiguchi-by-pao",
    "latitude": 35.68970420949308,
    "longitude": 139.77083889644015
  },
  {
    "id": "0628-ef1f656339b0",
    "brand": "いいオフィス",
    "company": "",
    "name": "神保町 by EXPRESSION",
    "prefecture": "東京都",
    "address": "東京都千代田区神田神保町2-20-6 恒倉ビルB1F",
    "station": "水道橋駅",
    "details": "完全個室ブース",
    "hours": "",
    "count": "",
    "price": "",
    "url": "https://e-office.space/spaces/kanto/tokyo/chiyodaku/jinbocho-by-tunekura",
    "latitude": 35.69737077600491,
    "longitude": 139.75626736085127
  },
  {
    "id": "0628-00382382ef71",
    "brand": "いいオフィス",
    "company": "",
    "name": "神保町 by Work Lounge WACRÉ",
    "prefecture": "東京都",
    "address": "東京都千代田区神田三崎町3丁目1番1号 高橋セーフビル5階",
    "station": "水道橋駅",
    "details": "完全個室ブース",
    "hours": "",
    "count": "",
    "price": "",
    "url": "https://e-office.space/spaces/kanto/tokyo/chiyodaku/suidobashi-by-wacre",
    "latitude": 35.699216834301396,
    "longitude": 139.75330109795397
  },
  {
    "id": "0628-089f4d184130",
    "brand": "いいオフィス",
    "company": "",
    "name": "神保町 by I・SPACE",
    "prefecture": "秋田県",
    "address": "秋田県千代田区神田神保町2-2-.21",
    "station": "水道橋駅",
    "details": "完全個室ブース",
    "hours": "",
    "count": "",
    "price": "",
    "url": "https://e-office.space/spaces/kanto/tokyo/chiyodaku/jinbocho-by-ispace",
    "latitude": 35.696428399832655,
    "longitude": 139.75669235178646
  },
  {
    "id": "0628-d3027d35da93",
    "brand": "いいオフィス",
    "company": "",
    "name": "いいオフィス神田",
    "prefecture": "東京都",
    "address": "東京都千代田区内神田3-14-6 内神田3・14ビル6階",
    "station": "神田駅",
    "details": "完全個室ブース",
    "hours": "",
    "count": "",
    "price": "",
    "url": "https://e-office.space/spaces/kanto/tokyo/chiyodaku/kanda-by-iio",
    "latitude": 35.69185023218806,
    "longitude": 139.7699003964417
  },
  {
    "id": "0628-c6af1813a426",
    "brand": "いいオフィス",
    "company": "",
    "name": "御茶ノ水 by GrinSpace",
    "prefecture": "東京都",
    "address": "東京都千代田区外神田２丁目２-１８ 東信お茶の水ビル１階",
    "station": "御茶ノ水駅",
    "details": "個室ブース",
    "hours": "",
    "count": "",
    "price": "",
    "url": "https://e-office.space/spaces/kanto/tokyo/chiyodaku/ochanomizu-by-grinspace",
    "latitude": 35.699672,
    "longitude": 139.767503
  },
  {
    "id": "0628-2acb5715543b",
    "brand": "いいオフィス",
    "company": "",
    "name": "秋葉原岩本町店 by FEEEP",
    "prefecture": "東京都",
    "address": "東京都千代田区神田岩本町1-20 窪田ビル2F/3F",
    "station": "秋葉原駅",
    "details": "完全個室ブース",
    "hours": "",
    "count": "",
    "price": "",
    "url": "https://e-office.space/spaces/kanto/tokyo/chiyodaku/akihabaraiwamotocho-by-feeep",
    "latitude": 35.69647917085659,
    "longitude": 139.77480096407317
  },
  {
    "id": "0628-5f60c6ed5917",
    "brand": "いいオフィス",
    "company": "",
    "name": "永田町 by FullHouse",
    "prefecture": "東京都",
    "address": "東京都千代田区平河町2-7-2 VORT永田町6F",
    "station": "永田町駅",
    "details": "完全個室ブース",
    "hours": "",
    "count": "",
    "price": "",
    "url": "https://e-office.space/spaces/kanto/tokyo/chiyodaku/nagatacho",
    "latitude": 35.67906267907196,
    "longitude": 139.74038677808795
  },
  {
    "id": "0628-a4dc20a9fdfe",
    "brand": "いいオフィス",
    "company": "",
    "name": "QUICK solo 九段会館テラス by CHATBOX",
    "prefecture": "東京都",
    "address": "東京都千代田区九段南1-6-5 B1F",
    "station": "九段下駅",
    "details": "完全個室ブース",
    "hours": "",
    "count": "",
    "price": "",
    "url": "https://e-office.space/spaces/kanto/tokyo/chiyodaku/cuick-solo-kudankaikanterasu-by-remoteworkbox",
    "latitude": 35.694440295180684,
    "longitude": 139.75119701124964
  },
  {
    "id": "0628-9d4c177468ea",
    "brand": "いいオフィス",
    "company": "",
    "name": "TKPガーデンシティ秋葉原 by CHATBOX",
    "prefecture": "東京都",
    "address": "東京都千代田区外神田1-7-5 フロントプレイス秋葉原2F",
    "station": "御茶ノ水駅",
    "details": "完全個室ブース",
    "hours": "",
    "count": "",
    "price": "",
    "url": "https://e-office.space/spaces/kanto/tokyo/chiyodaku/tkpgardencity-akihabara-by-remoteworkbox",
    "latitude": 35.69956466259785,
    "longitude": 139.76993707308577
  },
  {
    "id": "0628-d904707f20dd",
    "brand": "いいオフィス",
    "company": "",
    "name": "KKRホテル東京 by CHATBOX",
    "prefecture": "東京都",
    "address": "東京都千代田区大手町1-4-1 1階",
    "station": "大手町駅",
    "details": "完全個室ブース",
    "hours": "",
    "count": "",
    "price": "",
    "url": "https://e-office.space/spaces/kanto/tokyo/chiyodaku/kkrhotel-tokyo-by-remoteworkbox",
    "latitude": 35.69047119180617,
    "longitude": 139.7605145917388
  },
  {
    "id": "0628-567a7f316180",
    "brand": "いいオフィス",
    "company": "",
    "name": "TKP東京駅大手町 by CHATBOX",
    "prefecture": "東京都",
    "address": "東京都千代田区大手町１-8-1 KDDI大手町ビル（事務所：22F）",
    "station": "TKP東京駅",
    "details": "完全個室ブース",
    "hours": "",
    "count": "",
    "price": "",
    "url": "https://e-office.space/spaces/kanto/tokyo/chiyodaku/tkp-otemachi-by-remoteworkbox",
    "latitude": 35.68773621475975,
    "longitude": 139.76430496527382
  },
  {
    "id": "0628-ca961a42833a",
    "brand": "いいオフィス",
    "company": "",
    "name": "SoloWork飯田橋 by PaO",
    "prefecture": "東京都",
    "address": "東京都千代田区飯田橋4丁目1-11",
    "station": "飯田橋駅",
    "details": "完全個室ブース",
    "hours": "",
    "count": "",
    "price": "",
    "url": "https://e-office.space/spaces/kanto/tokyo/chiyodaku/soloworkiidabashi-by-pao",
    "latitude": 35.70015588390042,
    "longitude": 139.74785905601277
  },
  {
    "id": "0628-7ac6b67a4497",
    "brand": "いいオフィス",
    "company": "",
    "name": "TKP新橋 by CHATBOX",
    "prefecture": "東京都",
    "address": "東京都千代田区内幸町1-3-1 幸ビルディング12F",
    "station": "新橋駅",
    "details": "完全個室ブース",
    "hours": "",
    "count": "",
    "price": "",
    "url": "https://e-office.space/spaces/kanto/tokyo/chiyodaku/tkp-shinbashi-by-remoteworkbox",
    "latitude": 35.66983667718155,
    "longitude": 139.75594720060678
  },
  {
    "id": "0628-40e6e47a32d2",
    "brand": "いいオフィス",
    "company": "",
    "name": "ワークブース水道橋 by PaO",
    "prefecture": "東京都",
    "address": "東京都千代田区神田三崎町2丁目8-10 ケープビル203",
    "station": "水道橋駅",
    "details": "完全個室ブース",
    "hours": "",
    "count": "",
    "price": "",
    "url": "https://e-office.space/spaces/kanto/tokyo/chiyodaku/workboothsuidobashi-by-pao",
    "latitude": 35.700730969050895,
    "longitude": 139.75517106464272
  },
  {
    "id": "0628-c2e35ed0e2dd",
    "brand": "いいオフィス",
    "company": "",
    "name": "アルカディア市ヶ谷 私学会館 by CHATBOX",
    "prefecture": "東京都",
    "address": "東京都千代田区九段北４丁目２-２５ アルカディア市ヶ谷1F",
    "station": "市ケ谷駅",
    "details": "完全個室ブース",
    "hours": "",
    "count": "",
    "price": "",
    "url": "https://e-office.space/spaces/kanto/tokyo/chiyodaku/arcadia-ichigaya-by-remoteworkbox",
    "latitude": 35.69288322955332,
    "longitude": 139.74671393024045
  },
  {
    "id": "0628-e5a15730e3c3",
    "brand": "いいオフィス",
    "company": "",
    "name": "HKT神保町 by CHATBOX",
    "prefecture": "東京都",
    "address": "東京都千代田区神田神保町1ｰ42-15",
    "station": "御茶ノ水駅",
    "details": "完全個室ブース",
    "hours": "",
    "count": "",
    "price": "",
    "url": "https://e-office.space/spaces/kanto/tokyo/chiyodaku/hkt-jinboutyo-by-remoteworkbox",
    "latitude": 35.69768534862452,
    "longitude": 139.75783940006733
  },
  {
    "id": "0628-ea8d97891d69",
    "brand": "いいオフィス",
    "company": "",
    "name": "RAKU SPA1010神田 by CHATBOX",
    "prefecture": "東京都",
    "address": "東京都千代田区神田淡路町2-9-9 4階",
    "station": "新御茶ノ水駅",
    "details": "完全個室ブース",
    "hours": "",
    "count": "",
    "price": "",
    "url": "https://e-office.space/spaces/kanto/tokyo/chiyodaku/paku-spa1010-kanda-by-remoteworkbox",
    "latitude": 35.69816909235874,
    "longitude": 139.76790793396503
  },
  {
    "id": "0628-c36ca4ee1531",
    "brand": "いいオフィス",
    "company": "",
    "name": "三番町東急ビル by CHATBOX",
    "prefecture": "東京都",
    "address": "東京都千代田区三番町8-1 三番町東急ビル１F",
    "station": "市ケ谷駅",
    "details": "完全個室ブース",
    "hours": "",
    "count": "",
    "price": "",
    "url": "https://e-office.space/spaces/kanto/tokyo/chiyodaku/sanbancho-tokyubuild-by-remoteworkbox",
    "latitude": 35.6904412,
    "longitude": 139.7420322
  },
  {
    "id": "0628-28f0f791e3e1",
    "brand": "いいオフィス",
    "company": "",
    "name": "秋葉原 by ライズオフィス秋葉原",
    "prefecture": "東京都",
    "address": "東京都千代田区岩本町3-9-9 第一瀬野ビル5F",
    "station": "秋葉原駅",
    "details": "完全個室ブース",
    "hours": "",
    "count": "",
    "price": "",
    "url": "https://e-office.space/spaces/kanto/tokyo/chiyodaku/akihabara-by-riseoffice",
    "latitude": 35.696387717029566,
    "longitude": 139.77686446958535
  },
  {
    "id": "0628-94491784ec54",
    "brand": "いいオフィス",
    "company": "",
    "name": "PaO Work NMF駿河台ビル by Pao",
    "prefecture": "東京都",
    "address": "東京都千代田区神田駿河台2丁目5-12 NMF駿河台ビル エントランス",
    "station": "御茶ノ水駅",
    "details": "完全個室ブース",
    "hours": "",
    "count": "",
    "price": "",
    "url": "https://e-office.space/spaces/kanto/tokyo/chiyodaku/paoworknmfsurugadai-by-pao",
    "latitude": 35.70052862218188,
    "longitude": 139.76054151458942
  },
  {
    "id": "0628-6d7a1a920f3e",
    "brand": "いいオフィス",
    "company": "",
    "name": "SpemaBOX_水道橋三崎町 by Pao",
    "prefecture": "東京都",
    "address": "東京都千代田区神田三崎町2丁目7-10",
    "station": "水道橋駅",
    "details": "完全個室ブース",
    "hours": "",
    "count": "",
    "price": "",
    "url": "https://e-office.space/spaces/kanto/tokyo/chiyodaku/workboothsuidobashimisakicho-by-pao",
    "latitude": 35.70035834001504,
    "longitude": 139.7545470710014
  },
  {
    "id": "0628-450a90a4908d",
    "brand": "いいオフィス",
    "company": "",
    "name": "PaO Work 神田東口 by PaO",
    "prefecture": "東京都",
    "address": "東京都千代田区鍛冶町2-7-3 神田駅前センタービル4階",
    "station": "神田駅",
    "details": "完全個室ブース",
    "hours": "",
    "count": "",
    "price": "",
    "url": "https://e-office.space/spaces/kanto/tokyo/chiyodaku/paoworkkandahigashiguchi-by-pao",
    "latitude": 35.6924885672225,
    "longitude": 139.7717673964417
  },
  {
    "id": "0628-33875e8bafcc",
    "brand": "いいオフィス",
    "company": "",
    "name": "ミニマルワークスペース神田 by PaO",
    "prefecture": "東京都",
    "address": "東京都千代田区内神田3-3-6 フォレシティ内神田1階",
    "station": "神田駅",
    "details": "完全個室ブース",
    "hours": "",
    "count": "",
    "price": "",
    "url": "https://e-office.space/spaces/kanto/tokyo/chiyodaku/minimalworkspacekanda-by-pao",
    "latitude": 35.69249510237222,
    "longitude": 139.7717714197494
  },
  {
    "id": "0628-c44aa4aeb2ad",
    "brand": "いいオフィス",
    "company": "",
    "name": "ビズボ大手町駅前 by PaO",
    "prefecture": "東京都",
    "address": "東京都千代田区神田錦町1-21-2",
    "station": "ビズボ大手町駅",
    "details": "完全個室ブース",
    "hours": "",
    "count": "",
    "price": "",
    "url": "https://e-office.space/spaces/kanto/tokyo/chiyodaku/bizbootemachiekimae-by-pao",
    "latitude": 35.69080898087188,
    "longitude": 139.76430616743434
  },
  {
    "id": "0628-388ecc995270",
    "brand": "いいオフィス",
    "company": "",
    "name": "いいオフィス浅草",
    "prefecture": "東京都",
    "address": "東京都台東区雷門二丁目19番16号 VORT浅草江戸通り 4階",
    "station": "浅草駅",
    "details": "完全個室ブース",
    "hours": "",
    "count": "",
    "price": "",
    "url": "https://e-office.space/spaces/kanto/tokyo/taitoku/asakusa-by-iio",
    "latitude": 35.7101136,
    "longitude": 139.7971105
  },
  {
    "id": "0628-609a9813ace4",
    "brand": "いいオフィス",
    "company": "",
    "name": "上野 by ExeWorks上野店",
    "prefecture": "東京都",
    "address": "東京都台東区東上野2-13-2 上野スカイビル",
    "station": "新御徒町駅",
    "details": "完全個室ブース",
    "hours": "",
    "count": "",
    "price": "",
    "url": "https://e-office.space/spaces/kanto/tokyo/taitoku/ueno-by-exeworks",
    "latitude": 35.709306747452814,
    "longitude": 139.77796413918247
  },
  {
    "id": "0628-8f5eed27301e",
    "brand": "いいオフィス",
    "company": "",
    "name": "上野店 by FEEEP",
    "prefecture": "東京都",
    "address": "東京都台東区上野6-16-15 フォーライフ上野駅前ビル2F",
    "station": "フォーライフ上野駅",
    "details": "完全個室ブース",
    "hours": "",
    "count": "",
    "price": "",
    "url": "https://e-office.space/spaces/kanto/tokyo/taitoku/ueno-by-feeep",
    "latitude": 35.711172555123966,
    "longitude": 139.77620743425712
  },
  {
    "id": "0628-97c9ab1876f9",
    "brand": "いいオフィス",
    "company": "",
    "name": "いいオフィス御徒町",
    "prefecture": "東京都",
    "address": "東京都台東区上野4-2-1 江戸っ子ビル３F",
    "station": "御徒町駅",
    "details": "完全個室ブース",
    "hours": "",
    "count": "",
    "price": "",
    "url": "https://e-office.space/spaces/kanto/tokyo/taitoku/okachimachi-by-iio",
    "latitude": 35.70810956802508,
    "longitude": 139.77413939158112
  },
  {
    "id": "0628-0f8011a1310c",
    "brand": "いいオフィス",
    "company": "",
    "name": "ワークブース上野 by PaO",
    "prefecture": "東京都",
    "address": "東京都台東区上野6-7-15 石川ビル3階",
    "station": "上野駅",
    "details": "完全個室ブース",
    "hours": "",
    "count": "",
    "price": "",
    "url": "https://e-office.space/spaces/kanto/tokyo/taitoku/workboothueno-by-pao",
    "latitude": 35.710019835953375,
    "longitude": 139.776261082093
  },
  {
    "id": "0628-afe273a5c007",
    "brand": "いいオフィス",
    "company": "",
    "name": "カフェ・ド・クリエ御徒町 by CHATBOX",
    "prefecture": "東京都",
    "address": "東京都台東区上野5丁目23-13 モルト・ソーニャ1・2Ｆ",
    "station": "仲御徒町駅",
    "details": "完全個室ブース",
    "hours": "",
    "count": "",
    "price": "",
    "url": "https://e-office.space/spaces/kanto/tokyo/taitoku/cafedecrie-okachimachi-by-remoteworkbox",
    "latitude": 35.706363880875955,
    "longitude": 139.77584958404395
  },
  {
    "id": "0628-ab2ddc6bad05",
    "brand": "いいオフィス",
    "company": "",
    "name": "SpemaBOX_蔵前駅 by Pao",
    "prefecture": "東京都",
    "address": "東京都台東区蔵前2丁目6-7 MyCUBE by MYSTAYS 浅草蔵前 2階",
    "station": "蔵前駅",
    "details": "完全個室ブース",
    "hours": "",
    "count": "",
    "price": "",
    "url": "https://e-office.space/spaces/kanto/tokyo/taitoku/spemaboxkuramaeeki-by-Pao",
    "latitude": 35.703872287516326,
    "longitude": 139.79196167864296
  },
  {
    "id": "0628-89511d630b98",
    "brand": "いいオフィス",
    "company": "",
    "name": "浅草橋 by Island Japan",
    "prefecture": "東京都",
    "address": "東京都台東区柳橋2-7-4",
    "station": "浅草橋駅",
    "details": "個室ブース",
    "hours": "",
    "count": "",
    "price": "",
    "url": "https://e-office.space/spaces/kanto/tokyo/taitoku/asakusabashi-by-island-japan",
    "latitude": 35.69896394749926,
    "longitude": 139.7875717149491
  },
  {
    "id": "0628-b0af9f512aae",
    "brand": "いいオフィス",
    "company": "",
    "name": "Pao Work 北千住 by PaO",
    "prefecture": "東京都",
    "address": "東京都足立区千住旭町20-12 ラフォート北千住1階",
    "station": "北千住駅",
    "details": "完全個室ブース",
    "hours": "",
    "count": "",
    "price": "",
    "url": "https://e-office.space/spaces/kanto/tokyo/adachiku/paoworkkitasenju-by-pao",
    "latitude": 35.7480424684579,
    "longitude": 139.80983992589043
  },
  {
    "id": "0628-57d292ec3f54",
    "brand": "いいオフィス",
    "company": "",
    "name": "五反野 by 8Knot",
    "prefecture": "東京都",
    "address": "東京都足立区足立3-33-3 ヤオキン商事株式会社第2ビル3階",
    "station": "五反野駅",
    "details": "完全個室ブース",
    "hours": "",
    "count": "",
    "price": "",
    "url": "https://e-office.space/spaces/kanto/tokyo/adachiku/gotanno-by-8knot",
    "latitude": 35.76579372206982,
    "longitude": 139.80904648012907
  },
  {
    "id": "0628-c0b3fd9e5146",
    "brand": "いいオフィス",
    "company": "",
    "name": "五反野 by ツナグ",
    "prefecture": "東京都",
    "address": "東京都足立区弘道１丁目5-20",
    "station": "綾瀬駅",
    "details": "完全個室ブース",
    "hours": "",
    "count": "",
    "price": "",
    "url": "https://e-office.space/spaces/kanto/tokyo/adachiku/gotanno-by-tsunagu",
    "latitude": 35.766578,
    "longitude": 139.813519
  },
  {
    "id": "0628-6386169ba818",
    "brand": "いいオフィス",
    "company": "",
    "name": "竹ノ塚 by てんくんスペース",
    "prefecture": "東京都",
    "address": "東京都足立区竹ノ塚1-13-13 日の出ドライクリーニング竹ノ塚店2F",
    "station": "竹ノ塚駅",
    "details": "個室ブース",
    "hours": "",
    "count": "",
    "price": "",
    "url": "https://e-office.space/spaces/kanto/tokyo/adachiku/takenotsuka-by-tenkunspace",
    "latitude": 35.79099886315375,
    "longitude": 139.792887496225
  },
  {
    "id": "0628-3e04826801f1",
    "brand": "いいオフィス",
    "company": "",
    "name": "ワークスポット葛飾 by PaO",
    "prefecture": "東京都",
    "address": "東京都葛飾区白鳥2-16-22-103",
    "station": "綾瀬駅",
    "details": "完全個室ブース",
    "hours": "",
    "count": "",
    "price": "",
    "url": "https://e-office.space/spaces/kanto/tokyo/katsushikaku/workspotkatsushika-by-pao",
    "latitude": 35.74737804385657,
    "longitude": 139.84596790918022
  },
  {
    "id": "0628-ecdae2765533",
    "brand": "いいオフィス",
    "company": "",
    "name": "新小岩 by ファーストスペース",
    "prefecture": "東京都",
    "address": "東京都葛飾区新小岩2-20-8",
    "station": "新小岩駅",
    "details": "個室ブース",
    "hours": "",
    "count": "",
    "price": "",
    "url": "https://e-office.space/spaces/kanto/tokyo/katsushikaku/shinkoiwa-by-firstspace",
    "latitude": 35.71717125311786,
    "longitude": 139.8622548857122
  },
  {
    "id": "0628-2c12f3e7d604",
    "brand": "いいオフィス",
    "company": "",
    "name": "新小岩 by 東京tebiki隣",
    "prefecture": "東京都",
    "address": "東京都葛飾区新小岩2-7-16",
    "station": "新小岩駅",
    "details": "個室ブース",
    "hours": "",
    "count": "",
    "price": "",
    "url": "https://e-office.space/spaces/kanto/tokyo/katsushikaku/shinkoiwa-by-tebiki",
    "latitude": 35.71644163320202,
    "longitude": 139.8603950185666
  },
  {
    "id": "0628-175ee83d81b2",
    "brand": "いいオフィス",
    "company": "",
    "name": "池袋東口店 by FEEEP",
    "prefecture": "東京都",
    "address": "東京都豊島区南池袋1-22-1 池袋1221ビル2F",
    "station": "池袋駅",
    "details": "完全個室ブース",
    "hours": "",
    "count": "",
    "price": "",
    "url": "https://e-office.space/spaces/kanto/tokyo/toshimaku/ikebukurohigashiguchi-by-feeep",
    "latitude": 35.72898863350834,
    "longitude": 139.7122895301767
  },
  {
    "id": "0628-3982a7da3f71",
    "brand": "いいオフィス",
    "company": "",
    "name": "池袋 by co-ba ikebukuro station",
    "prefecture": "東京都",
    "address": "東京都豊島区西池袋一丁目17番7号 池袋ルミエール ビル4F",
    "station": "池袋駅",
    "details": "個室ブース",
    "hours": "",
    "count": "",
    "price": "",
    "url": "https://e-office.space/spaces/kanto/tokyo/toshimaku/ikebukurostation-by-co-ba",
    "latitude": 35.73106405230005,
    "longitude": 139.70856412284712
  },
  {
    "id": "0628-0ee784808136",
    "brand": "いいオフィス",
    "company": "",
    "name": "いいオフィス池袋",
    "prefecture": "東京都",
    "address": "東京都豊島区東池袋1-40-3 池袋ハタビル3階",
    "station": "池袋駅",
    "details": "個室ブース",
    "hours": "",
    "count": "",
    "price": "",
    "url": "https://e-office.space/spaces/kanto/tokyo/toshimaku/ikebukuro-by-iio",
    "latitude": 35.73195700270489,
    "longitude": 139.71372875914193
  },
  {
    "id": "0628-297c01da1f2e",
    "brand": "いいオフィス",
    "company": "",
    "name": "大森 by HAKADORUアトレ大森店",
    "prefecture": "東京都",
    "address": "東京都大田区大森北1-6-16 アトレ大森店５Ｆ",
    "station": "大森駅",
    "details": "完全個室ブース",
    "hours": "",
    "count": "",
    "price": "",
    "url": "https://e-office.space/spaces/kanto/tokyo/otaku/omori-by-hakadoru",
    "latitude": 35.588540627482274,
    "longitude": 139.7282298569993
  },
  {
    "id": "0628-f7dfbf778e81",
    "brand": "いいオフィス",
    "company": "",
    "name": "雪が谷大塚 by ゆたか",
    "prefecture": "東京都",
    "address": "東京都大田区南雪谷2-12-9 第５ゆたかビル３階",
    "station": "雪が谷大塚駅",
    "details": "完全個室ブース",
    "hours": "",
    "count": "",
    "price": "",
    "url": "https://e-office.space/spaces/kanto/tokyo/otaku/yukigayaotsuka-by-yutaka",
    "latitude": 35.591262647968804,
    "longitude": 139.68119083515086
  },
  {
    "id": "0628-8b29f050276a",
    "brand": "いいオフィス",
    "company": "",
    "name": "いいオフィス蒲田",
    "prefecture": "東京都",
    "address": "東京都大田区西蒲田7-28-5 中島ビル 地下1F",
    "station": "蒲田駅",
    "details": "完全個室ブース",
    "hours": "",
    "count": "",
    "price": "",
    "url": "https://e-office.space/spaces/kanto/tokyo/otaku/kamata-by-iio",
    "latitude": 35.563503940055384,
    "longitude": 139.71496853069868
  },
  {
    "id": "0628-496b624c39c9",
    "brand": "いいオフィス",
    "company": "",
    "name": "東急プラザ蒲田 by RemoteworkBOX",
    "prefecture": "東京都",
    "address": "東京都大田区西蒲田７丁目６９-１ 東急プラザ蒲田7F",
    "station": "蒲田駅",
    "details": "完全個室ブース",
    "hours": "",
    "count": "",
    "price": "",
    "url": "https://e-office.space/spaces/kanto/tokyo/otaku/tokyu-plaza-kamata-by-remoteworkbox",
    "latitude": 35.56197133495043,
    "longitude": 139.71536489459777
  },
  {
    "id": "0628-9159354b8b4e",
    "brand": "いいオフィス",
    "company": "",
    "name": "西大井 by IDEABOX",
    "prefecture": "東京都",
    "address": "東京都品川区西大井1-15-9",
    "station": "中延駅",
    "details": "完全個室ブース",
    "hours": "",
    "count": "",
    "price": "",
    "url": "https://e-office.space/spaces/kanto/tokyo/shinagawaku/nishioi-by-ideabox",
    "latitude": 35.6005925251239,
    "longitude": 139.72568417580516
  },
  {
    "id": "0628-0b78023a7a34",
    "brand": "いいオフィス",
    "company": "",
    "name": "武蔵小山 by リンクフロンティア",
    "prefecture": "東京都",
    "address": "東京都品川区小山4-9-4 PERLE BLANCHE 3階",
    "station": "戸越駅",
    "details": "完全個室ブース",
    "hours": "",
    "count": "",
    "price": "",
    "url": "https://e-office.space/spaces/kanto/tokyo/shinagawaku/musashikoyama-by-link-fr",
    "latitude": 35.618800749697584,
    "longitude": 139.70292585417064
  },
  {
    "id": "0628-28f03a9f8f9c",
    "brand": "いいオフィス",
    "company": "",
    "name": "いいオフィス目黒",
    "prefecture": "東京都",
    "address": "東京都品川区上大崎2-12-7 目黒I-Nビル8階",
    "station": "目黒駅",
    "details": "完全個室ブース",
    "hours": "",
    "count": "",
    "price": "",
    "url": "https://e-office.space/spaces/kanto/tokyo/shinagawaku/meguro-by-iio",
    "latitude": 35.63484461410185,
    "longitude": 139.7163518700861
  },
  {
    "id": "0628-057a7fd3fd79",
    "brand": "いいオフィス",
    "company": "",
    "name": "青物横丁 by U-make",
    "prefecture": "東京都",
    "address": "東京都品川区南品川5-16-7 U-make南品川 B1F,1F",
    "station": "戸越駅",
    "details": "完全個室ブース",
    "hours": "",
    "count": "",
    "price": "",
    "url": "https://e-office.space/spaces/kanto/tokyo/shinagawaku/aomonoyokocho-by-u-make",
    "latitude": 35.609299673801935,
    "longitude": 139.7422580271852
  },
  {
    "id": "0628-640b380fddf4",
    "brand": "いいオフィス",
    "company": "",
    "name": "いいオフィス五反田駅前",
    "prefecture": "東京都",
    "address": "東京都品川区東五反田1丁目14-14 北原ビル6階",
    "station": "いいオフィス五反田駅",
    "details": "完全個室ブース",
    "hours": "",
    "count": "",
    "price": "",
    "url": "https://e-office.space/spaces/kanto/tokyo/shinagawaku/gotandaekimae-by-iio",
    "latitude": 35.626069137236385,
    "longitude": 139.72480175929195
  },
  {
    "id": "0628-58b280f8efc4",
    "brand": "いいオフィス",
    "company": "",
    "name": "ビズボ五反田東口 by PaO",
    "prefecture": "東京都",
    "address": "東京都品川区東五反田1-11-12",
    "station": "五反田駅",
    "details": "完全個室ブース",
    "hours": "",
    "count": "",
    "price": "",
    "url": "https://e-office.space/spaces/kanto/tokyo/shinagawaku/bizbogotandahigashiguchi-by-pao",
    "latitude": 35.627335767241,
    "longitude": 139.72501698294366
  },
  {
    "id": "0628-cddf87d57130",
    "brand": "いいオフィス",
    "company": "",
    "name": "大井町 by MICAN",
    "prefecture": "東京都",
    "address": "東京都品川区大井1-6-3 アゴラ大井町3階",
    "station": "大井町駅",
    "details": "完全個室ブース",
    "hours": "",
    "count": "",
    "price": "",
    "url": "https://e-office.space/spaces/kanto/tokyo/shinagawaku/oimachi-by-mican",
    "latitude": 35.60683037999523,
    "longitude": 139.7335712910782
  },
  {
    "id": "0628-9807d37131ba",
    "brand": "いいオフィス",
    "company": "",
    "name": "大井町 by カテナ",
    "prefecture": "東京都",
    "address": "東京都品川区大井1-27-6 ガーネットビル B1F",
    "station": "中延駅",
    "details": "完全個室ブース",
    "hours": "",
    "count": "",
    "price": "",
    "url": "https://e-office.space/spaces/kanto/tokyo/shinagawaku/oimachi-by-catena",
    "latitude": 35.60624788283302,
    "longitude": 139.7321065898443
  },
  {
    "id": "0628-4d037ac6edc4",
    "brand": "いいオフィス",
    "company": "",
    "name": "五反田 by iiO",
    "prefecture": "東京都",
    "address": "東京都品川区西五反田２丁目１０-８ ドルミ五反田ドゥメゾン３０６",
    "station": "五反田駅",
    "details": "個室ブース",
    "hours": "",
    "count": "",
    "price": "",
    "url": "https://e-office.space/spaces/kanto/tokyo/shinagawaku/gotanda-by-iio",
    "latitude": 35.6271260623947,
    "longitude": 139.72083963736108
  },
  {
    "id": "0628-02372b531020",
    "brand": "いいオフィス",
    "company": "",
    "name": "VACANCY OFFICE GOTANDA by CHATBOX",
    "prefecture": "東京都",
    "address": "東京都品川区大崎4-1-7 1階",
    "station": "五反田駅",
    "details": "完全個室ブース",
    "hours": "",
    "count": "",
    "price": "",
    "url": "https://e-office.space/spaces/kanto/tokyo/shinagawaku/vacancy-office-gotanda-by-remoteworkbox",
    "latitude": 35.62218506353143,
    "longitude": 139.72270160815168
  },
  {
    "id": "0628-5ebb43ff3724",
    "brand": "いいオフィス",
    "company": "",
    "name": "世田谷池ノ上 by DOTEMA",
    "prefecture": "東京都",
    "address": "東京都世田谷区代沢2-48-3",
    "station": "池ノ上駅",
    "details": "個室ブース",
    "hours": "",
    "count": "",
    "price": "",
    "url": "https://e-office.space/spaces/kanto/tokyo/setagayaku/ikenoue-by-dotema",
    "latitude": 35.66015032403604,
    "longitude": 139.6757343358371
  },
  {
    "id": "0628-c9afa73d4a22",
    "brand": "いいオフィス",
    "company": "",
    "name": "いいオフィス下北沢駅前",
    "prefecture": "東京都",
    "address": "東京都世⽥⾕区北沢２丁⽬ 23-7 パル・メゾン・デ・ルーミー201",
    "station": "いいオフィス下北沢駅",
    "details": "個室ブース",
    "hours": "",
    "count": "",
    "price": "",
    "url": "https://e-office.space/spaces/kanto/tokyo/setagayaku/shimokitazawaekimae-by-iio",
    "latitude": 35.66153675973041,
    "longitude": 139.66597896733288
  },
  {
    "id": "0628-e2e59b505e12",
    "brand": "いいオフィス",
    "company": "",
    "name": "下北沢 by KanadeBako",
    "prefecture": "東京都",
    "address": "東京都世田谷区北沢 2-5-2 下北沢ビッグベンビル 5F",
    "station": "下北沢駅",
    "details": "完全個室ブース",
    "hours": "",
    "count": "",
    "price": "",
    "url": "https://e-office.space/spaces/kanto/tokyo/setagayaku/shimokitazawa-by-kanadebako",
    "latitude": 35.66091805232401,
    "longitude": 139.66891719381928
  },
  {
    "id": "0628-db10cd48bdbd",
    "brand": "いいオフィス",
    "company": "",
    "name": "祖師谷大蔵 by WorkandPlaySOSHIGAYA",
    "prefecture": "東京都",
    "address": "東京都世田谷区祖師谷3-8-11 リエゾンМ1階",
    "station": "祖師ヶ谷大蔵駅",
    "details": "完全個室ブース",
    "hours": "",
    "count": "",
    "price": "",
    "url": "https://e-office.space/spaces/kanto/tokyo/setagayaku/soshigayaokura-by-workandplay",
    "latitude": 35.64267944226547,
    "longitude": 139.60496232656195
  },
  {
    "id": "0628-b5ba614851d4",
    "brand": "いいオフィス",
    "company": "",
    "name": "世田谷豪徳寺 by Working cafe halo",
    "prefecture": "東京都",
    "address": "東京都世田谷区豪徳寺1-23-23 Closhe豪徳寺102",
    "station": "豪徳寺駅",
    "details": "個室ブース",
    "hours": "",
    "count": "",
    "price": "",
    "url": "https://e-office.space/spaces/kanto/tokyo/setagayaku/gotokuji-by-cafehalo",
    "latitude": 35.6519143538456,
    "longitude": 139.64635797680808
  },
  {
    "id": "0628-ac55efd70350",
    "brand": "いいオフィス",
    "company": "",
    "name": "いいオフィス二子玉川",
    "prefecture": "東京都",
    "address": "東京都世田谷区玉川3-6-7 横溝ビル2階",
    "station": "二子玉川駅",
    "details": "完全個室ブース",
    "hours": "",
    "count": "",
    "price": "",
    "url": "https://e-office.space/spaces/kanto/tokyo/setagayaku/futakotamagawa-by-iio",
    "latitude": 35.61261328244893,
    "longitude": 139.6261606011052
  },
  {
    "id": "0628-23f2f2c294c2",
    "brand": "いいオフィス",
    "company": "",
    "name": "いいオフィス下北沢",
    "prefecture": "東京都",
    "address": "東京都世田谷区北沢2-28-2 深澤ビル2階",
    "station": "下北沢駅",
    "details": "個室ブース",
    "hours": "",
    "count": "",
    "price": "",
    "url": "https://e-office.space/spaces/kanto/tokyo/setagayaku/shimokitazawa-by-annex1",
    "latitude": 35.663143531139156,
    "longitude": 139.6659455845088
  },
  {
    "id": "0628-dee90e297f80",
    "brand": "いいオフィス",
    "company": "",
    "name": "明大前 by SaCuLa明大前",
    "prefecture": "東京都",
    "address": "東京都世田谷区松原1-38-8 村山ビル2B",
    "station": "明大前駅",
    "details": "完全個室ブース",
    "hours": "",
    "count": "",
    "price": "",
    "url": "https://e-office.space/spaces/kanto/tokyo/setagayaku/meidaimae-by-sacula",
    "latitude": 35.66912636305645,
    "longitude": 139.65075699603995
  },
  {
    "id": "0628-fa5c657dec0e",
    "brand": "いいオフィス",
    "company": "",
    "name": "千歳烏山 by SaCuLa 千歳烏山",
    "prefecture": "東京都",
    "address": "東京都世田谷区南烏山6-27-1 宿谷ビル201号",
    "station": "千歳烏山駅",
    "details": "完全個室ブース",
    "hours": "",
    "count": "",
    "price": "",
    "url": "https://e-office.space/spaces/kanto/tokyo/setagayaku/chitosekarasuyama-by-sacula",
    "latitude": 35.67034068641975,
    "longitude": 139.59886737296497
  },
  {
    "id": "0628-9482dc4b4b03",
    "brand": "いいオフィス",
    "company": "",
    "name": "cocony三軒茶屋 by PaO",
    "prefecture": "東京都",
    "address": "東京都世田谷区太子堂4-5-2 タロウビル4階",
    "station": "中目黒駅",
    "details": "完全個室ブース",
    "hours": "",
    "count": "",
    "price": "",
    "url": "https://e-office.space/spaces/kanto/tokyo/setagayaku/coconysangenjaya-by-pao",
    "latitude": 35.64320710615097,
    "longitude": 139.66719441588612
  },
  {
    "id": "0628-14e99d776583",
    "brand": "いいオフィス",
    "company": "",
    "name": "SpemaBOX_駒沢大学駅前 by PaO",
    "prefecture": "東京都",
    "address": "東京都世田谷区上馬3-18-14 ファミリーマート駒沢大学駅前店店内2階",
    "station": "ファミリーマート駒沢大学駅",
    "details": "完全個室ブース",
    "hours": "",
    "count": "",
    "price": "",
    "url": "https://e-office.space/spaces/kanto/tokyo/setagayaku/minimalworkspacekomazawadaigaku-by-pao",
    "latitude": 35.633324644658245,
    "longitude": 139.66200077617322
  },
  {
    "id": "0628-530e44d95558",
    "brand": "いいオフィス",
    "company": "",
    "name": "浜松町 by A-Point",
    "prefecture": "東京都",
    "address": "東京都港区海岸1-9-18 国際浜松町ビル 4F",
    "station": "大門駅",
    "details": "完全個室ブース",
    "hours": "",
    "count": "",
    "price": "",
    "url": "https://e-office.space/spaces/kanto/tokyo/minatoku/hamamatsucho-by-a-point",
    "latitude": 35.655598241999925,
    "longitude": 139.7614146175273
  },
  {
    "id": "0628-5e519674a877",
    "brand": "いいオフィス",
    "company": "",
    "name": "いいオフィス品川",
    "prefecture": "東京都",
    "address": "東京都港区港南2-2-14 協和ビルディング7・8階",
    "station": "品川駅",
    "details": "完全個室ブース",
    "hours": "",
    "count": "",
    "price": "",
    "url": "https://e-office.space/spaces/kanto/tokyo/minatoku/shinagawa-by-iio",
    "latitude": 35.6289295,
    "longitude": 139.7419969
  },
  {
    "id": "0628-2add25813dc6",
    "brand": "いいオフィス",
    "company": "",
    "name": "大門浜松町 by リブポート浜松町",
    "prefecture": "東京都",
    "address": "東京都港区浜松町2-5-3",
    "station": "浜松町駅",
    "details": "完全個室ブース",
    "hours": "",
    "count": "",
    "price": "",
    "url": "https://e-office.space/spaces/kanto/tokyo/minatoku/hamamatsucho-by-libport",
    "latitude": 35.6543530119294,
    "longitude": 139.75648888096418
  },
  {
    "id": "0628-e241937d15a7",
    "brand": "いいオフィス",
    "company": "",
    "name": "新橋 by BISTATION",
    "prefecture": "東京都",
    "address": "東京都港区新橋2-20-15 新橋駅前ビル1号館6階",
    "station": "新橋駅",
    "details": "完全個室ブース",
    "hours": "",
    "count": "",
    "price": "",
    "url": "https://e-office.space/spaces/kanto/tokyo/minatoku/shinbashi-by-bistation",
    "latitude": 35.666341999928,
    "longitude": 139.75954154458557
  },
  {
    "id": "0628-5443e4fe3dd7",
    "brand": "いいオフィス",
    "company": "",
    "name": "浜松町 by wedo",
    "prefecture": "東京都",
    "address": "東京都港区芝大門１丁目６-６ 芝大門ヤマトビル ３F",
    "station": "大門駅",
    "details": "完全個室ブース",
    "hours": "",
    "count": "",
    "price": "",
    "url": "https://e-office.space/spaces/kanto/tokyo/minatoku/hamamatsucho-by-wedo",
    "latitude": 35.657732387291595,
    "longitude": 139.75416240722063
  },
  {
    "id": "0628-9ad62a5b21f0",
    "brand": "いいオフィス",
    "company": "",
    "name": "浜松町大門 by リンクフロンティア",
    "prefecture": "東京都",
    "address": "東京都港区浜松町2-2-3 INPACビル 3F",
    "station": "大門駅",
    "details": "完全個室ブース",
    "hours": "",
    "count": "",
    "price": "",
    "url": "https://e-office.space/spaces/kanto/tokyo/minatoku/hamamatsucho-daimon-by-link-fr",
    "latitude": 35.65546900834012,
    "longitude": 139.75497566861247
  },
  {
    "id": "0628-6ec52bfe12eb",
    "brand": "いいオフィス",
    "company": "",
    "name": "いいオフィス赤坂見附",
    "prefecture": "東京都",
    "address": "東京都港区赤坂3-9-4 サカタニビル 5階",
    "station": "赤坂見附駅",
    "details": "完全個室ブース",
    "hours": "",
    "count": "",
    "price": "",
    "url": "https://e-office.space/spaces/kanto/tokyo/minatoku/akasakamitsuke-by-iio",
    "latitude": 35.67706229881996,
    "longitude": 139.73640562317735
  },
  {
    "id": "0628-a1a87a3e90e8",
    "brand": "いいオフィス",
    "company": "",
    "name": "いいオフィス田町",
    "prefecture": "東京都",
    "address": "東京都港区芝5丁目20-11 朝倉ビル4階",
    "station": "三田駅",
    "details": "完全個室ブース",
    "hours": "",
    "count": "",
    "price": "",
    "url": "https://e-office.space/spaces/kanto/tokyo/minatoku/tamachi-by-iio",
    "latitude": 35.64746409507693,
    "longitude": 139.7475405976357
  },
  {
    "id": "0628-6ece5d05af4c",
    "brand": "いいオフィス",
    "company": "",
    "name": "品川 by リブポート品川",
    "prefecture": "東京都",
    "address": "東京都港区港南1-8-15 Wビル2F",
    "station": "泉岳寺駅",
    "details": "完全個室ブース",
    "hours": "",
    "count": "",
    "price": "",
    "url": "https://e-office.space/spaces/kanto/tokyo/minatoku/shinagawa-by-libport",
    "latitude": 35.63038830495268,
    "longitude": 139.74419120632896
  },
  {
    "id": "0628-fcd596a7a603",
    "brand": "いいオフィス",
    "company": "",
    "name": "芝浦 by ヨコソーレインボータワー",
    "prefecture": "東京都",
    "address": "東京都港区海岸3-20-20 ヨコソーレインボータワー10階",
    "station": "三田駅",
    "details": "完全個室ブース",
    "hours": "",
    "count": "",
    "price": "",
    "url": "https://e-office.space/spaces/kanto/tokyo/minatoku/shibaura-by-yokoso",
    "latitude": 35.63999549365682,
    "longitude": 139.75650162180864
  },
  {
    "id": "0628-13f98d710164",
    "brand": "いいオフィス",
    "company": "",
    "name": "いいオフィス南麻布",
    "prefecture": "東京都",
    "address": "東京都港区南麻布2丁目15番5号",
    "station": "泉岳寺駅",
    "details": "完全個室ブース",
    "hours": "",
    "count": "",
    "price": "",
    "url": "https://e-office.space/spaces/kanto/tokyo/minatoku/minamiazabu-by-iio",
    "latitude": 35.646671843597204,
    "longitude": 139.73432841226838
  },
  {
    "id": "0628-9cd617bdf0b7",
    "brand": "いいオフィス",
    "company": "",
    "name": "いいオフィス新橋",
    "prefecture": "東京都",
    "address": "東京都港区新橋2-19-2 リプロ新橋ビル6階",
    "station": "新橋駅",
    "details": "完全個室ブース",
    "hours": "",
    "count": "",
    "price": "",
    "url": "https://e-office.space/spaces/kanto/tokyo/minatoku/shimbashi-by-iio",
    "latitude": 35.66688040759989,
    "longitude": 139.75954147823256
  },
  {
    "id": "0628-a7528676c319",
    "brand": "いいオフィス",
    "company": "",
    "name": "ニュー新橋ビル店 by FEEEP",
    "prefecture": "東京都",
    "address": "東京都港区新橋2-16-1 ニュー新橋ビル1F 127区画",
    "station": "新橋駅",
    "details": "完全個室ブース",
    "hours": "",
    "count": "",
    "price": "",
    "url": "https://e-office.space/spaces/kanto/tokyo/minatoku/newshinbashi-by-feeep",
    "latitude": 35.66630993007384,
    "longitude": 139.7573820725371
  },
  {
    "id": "0628-78a930529eed",
    "brand": "いいオフィス",
    "company": "",
    "name": "ワークブース新橋駅前 by PaO",
    "prefecture": "東京都",
    "address": "東京都港区新橋3丁目21-2 江藤ビル4B",
    "station": "ワークブース新橋駅",
    "details": "完全個室ブース",
    "hours": "",
    "count": "",
    "price": "",
    "url": "https://e-office.space/spaces/kanto/tokyo/minatoku/workboothshimbashiekimae-by-pao",
    "latitude": 35.66523686644631,
    "longitude": 139.75792020175493
  },
  {
    "id": "0628-a7740ecd5755",
    "brand": "いいオフィス",
    "company": "",
    "name": "ニュー新橋ビル by CHATBOX",
    "prefecture": "東京都",
    "address": "東京都港区新橋２丁目１６-１ ニュー新橋ビル 517号室",
    "station": "新橋駅",
    "details": "完全個室ブース",
    "hours": "",
    "count": "",
    "price": "",
    "url": "https://e-office.space/spaces/kanto/tokyo/minatoku/new-shimbashibuilding-by-remoteworkbox",
    "latitude": 35.66642660726138,
    "longitude": 139.75735721879903
  },
  {
    "id": "0628-3ccb5a5a4cc5",
    "brand": "いいオフィス",
    "company": "",
    "name": "三田 by スペラボ三田",
    "prefecture": "東京都",
    "address": "東京都港区芝4-7-7 ビラ・アペックス田町7F",
    "station": "三田駅",
    "details": "完全個室ブース",
    "hours": "",
    "count": "",
    "price": "",
    "url": "https://e-office.space/spaces/kanto/tokyo/minatoku/mita-by-spalab",
    "latitude": 35.64903909133682,
    "longitude": 139.75227915603676
  },
  {
    "id": "0628-ea78ba5178a1",
    "brand": "いいオフィス",
    "company": "",
    "name": "ビズボ赤坂見附駅前 by PaO",
    "prefecture": "東京都",
    "address": "東京都港区赤坂3-10-5",
    "station": "ビズボ赤坂見附駅",
    "details": "完全個室ブース",
    "hours": "",
    "count": "",
    "price": "",
    "url": "https://e-office.space/spaces/kanto/tokyo/minatoku/bizboakasakamitsuke-by-pao",
    "latitude": 35.67597780563792,
    "longitude": 139.7369200553349
  },
  {
    "id": "0628-debf55ab93e5",
    "brand": "いいオフィス",
    "company": "",
    "name": "TKPガーデンシティ田町 by CHATBOX",
    "prefecture": "東京都",
    "address": "東京都港区芝浦3-1-21 msb Tamachi 田町ステーションタワーS 4階",
    "station": "田町駅",
    "details": "完全個室ブース",
    "hours": "",
    "count": "",
    "price": "",
    "url": "https://e-office.space/spaces/kanto/tokyo/minatoku/tkpgardencity-tamachi-by-remoteworkbox",
    "latitude": 35.64498195309643,
    "longitude": 139.7492156568747
  },
  {
    "id": "0628-8e9f01d2d409",
    "brand": "いいオフィス",
    "company": "",
    "name": "浜松町スクエア by CHATBOX",
    "prefecture": "東京都",
    "address": "東京都港区浜松町１丁目３０-５ 浜松町スクエア１F",
    "station": "大門駅",
    "details": "完全個室ブース",
    "hours": "",
    "count": "",
    "price": "",
    "url": "https://e-office.space/spaces/kanto/tokyo/minatoku/hamamatucho-square-by-remoteworkbox",
    "latitude": 35.6568376,
    "longitude": 139.7567384
  },
  {
    "id": "0628-234201b7f8c3",
    "brand": "いいオフィス",
    "company": "",
    "name": "品川イースト by CHATBOX",
    "prefecture": "東京都",
    "address": "東京都港区港南1-6-34 １F",
    "station": "泉岳寺駅",
    "details": "完全個室ブース",
    "hours": "",
    "count": "",
    "price": "",
    "url": "https://e-office.space/spaces/kanto/tokyo/minatoku/shinagawaeast-by-remoteworkbox",
    "latitude": 35.6304372139,
    "longitude": 139.7454179
  },
  {
    "id": "0628-eac0f54290e5",
    "brand": "いいオフィス",
    "company": "",
    "name": "味覚糖UHA館TKP溜池山王 by CHATBOX",
    "prefecture": "東京都",
    "address": "東京都港区赤坂2-12-13 UHA味覚糖赤坂ビル5F",
    "station": "溜池山王駅",
    "details": "完全個室ブース",
    "hours": "",
    "count": "",
    "price": "",
    "url": "https://e-office.space/spaces/kanto/tokyo/minatoku/cc-uha-tameikesanno-by-remoteworkbox",
    "latitude": 35.67081517950655,
    "longitude": 139.74093295155524
  },
  {
    "id": "0628-67d2f5d1a196",
    "brand": "いいオフィス",
    "company": "",
    "name": "SpemaBOX_六本木 by PaO",
    "prefecture": "東京都",
    "address": "東京都港区六本木4丁目6-3 HORIJUKU PLACE THE TOKYO 1階エントランス",
    "station": "六本木駅",
    "details": "完全個室ブース",
    "hours": "",
    "count": "",
    "price": "",
    "url": "https://e-office.space/spaces/kanto/tokyo/minatoku/workboothroppongi-by-pao",
    "latitude": 35.66458215361761,
    "longitude": 139.73239241422803
  },
  {
    "id": "0628-b3947abc2a3d",
    "brand": "いいオフィス",
    "company": "",
    "name": "ミニマルワークスペース白金高輪 by PaO",
    "prefecture": "東京都",
    "address": "東京都港区白金1丁目17-3 NBFプラチナタワー 10階",
    "station": "泉岳寺駅",
    "details": "完全個室ブース",
    "hours": "",
    "count": "",
    "price": "",
    "url": "https://e-office.space/spaces/kanto/tokyo/minatoku/minimalworkspaceshirokanetakanawa-by-pao",
    "latitude": 35.64456509775937,
    "longitude": 139.73444884194782
  },
  {
    "id": "0628-3b80e2cdfa02",
    "brand": "いいオフィス",
    "company": "",
    "name": "赤坂見附 by ライズオフィス赤坂見附",
    "prefecture": "東京都",
    "address": "東京都港区赤坂3-21-12 陶香堂ビル5F",
    "station": "四ツ谷駅",
    "details": "個室ブース",
    "hours": "",
    "count": "",
    "price": "",
    "url": "https://e-office.space/spaces/kanto/tokyo/minatoku/akasakamitsuke-by-riseoffice",
    "latitude": 35.67653824159902,
    "longitude": 139.73566640583442
  },
  {
    "id": "0628-30cb3fe39cc4",
    "brand": "いいオフィス",
    "company": "",
    "name": "PaO Work NMF青山一丁目ビル by Pao",
    "prefecture": "東京都",
    "address": "東京都港区赤坂8丁目1-22 NMF青山一丁目ビル エントランス",
    "station": "信濃町駅",
    "details": "個室ブース",
    "hours": "",
    "count": "",
    "price": "",
    "url": "https://e-office.space/spaces/kanto/tokyo/minatoku/paoworknmfaoyamaitchome-by-pao",
    "latitude": 35.67345515647193,
    "longitude": 139.72770983573685
  },
  {
    "id": "0628-fa29ba90b306",
    "brand": "いいオフィス",
    "company": "",
    "name": "大門 by スペラボ浜松町大門",
    "prefecture": "東京都",
    "address": "東京都港区浜松町1-18-11 イマスオフィス浜松町3F",
    "station": "大門駅",
    "details": "完全個室ブース",
    "hours": "",
    "count": "",
    "price": "",
    "url": "https://e-office.space/spaces/kanto/tokyo/minatoku/daimon-by-spalab",
    "latitude": 35.65785629147709,
    "longitude": 139.7552433706432
  },
  {
    "id": "0628-6fc8e2b1c02a",
    "brand": "いいオフィス",
    "company": "",
    "name": "ワークブース浜松町 by PaO",
    "prefecture": "東京都",
    "address": "東京都港区芝大門2丁目4-5 芝ダイヤハイツ707号室",
    "station": "大門駅",
    "details": "完全個室ブース",
    "hours": "",
    "count": "",
    "price": "",
    "url": "https://e-office.space/spaces/kanto/tokyo/minatoku/workboothhamamatsucho-by-pao",
    "latitude": 35.65633009373984,
    "longitude": 139.7541765780037
  },
  {
    "id": "0628-4e52f5c5b24a",
    "brand": "いいオフィス",
    "company": "",
    "name": "SpemaBOX_浜松町一丁目 by PaO",
    "prefecture": "神奈川県",
    "address": "神奈川県港区浜松町1-27-17 三和ビル1F ファミリーマート浜松町一丁目店店内",
    "station": "大門駅",
    "details": "完全個室ブース",
    "hours": "",
    "count": "",
    "price": "",
    "url": "https://e-office.space/spaces/kanto/tokyo/minatoku/minimalworkspacehamamatsucho-by-pao",
    "latitude": 35.657671024757285,
    "longitude": 139.75505823423342
  },
  {
    "id": "0628-9ad938dcf3a5",
    "brand": "いいオフィス",
    "company": "",
    "name": "田町芝浦 by カムリーコワーキング",
    "prefecture": "東京都",
    "address": "東京都港区芝浦4-9-18 グランドパレス田町2F",
    "station": "泉岳寺駅",
    "details": "完全個室ブース",
    "hours": "",
    "count": "",
    "price": "",
    "url": "https://e-office.space/spaces/kanto/tokyo/minatoku/shibaura-by-calmly",
    "latitude": 35.639708486967976,
    "longitude": 139.74712919850117
  },
  {
    "id": "0628-43caa542a289",
    "brand": "いいオフィス",
    "company": "",
    "name": "渋谷宮益坂 by HAKADORU",
    "prefecture": "東京都",
    "address": "東京都渋谷区渋谷2丁目19-15 1階",
    "station": "渋谷駅",
    "details": "完全個室ブース",
    "hours": "",
    "count": "",
    "price": "",
    "url": "https://e-office.space/spaces/kanto/tokyo/shibuyaku/shibuya-by-hakadoru",
    "latitude": 35.65960747073839,
    "longitude": 139.70376290354915
  },
  {
    "id": "0628-4a02caa2315a",
    "brand": "いいオフィス",
    "company": "",
    "name": "恵比寿西口店 by FEEEP",
    "prefecture": "東京都",
    "address": "東京都渋谷区恵比寿南1-4-12 岩徳ビル Ⅱ 6F",
    "station": "恵比寿駅",
    "details": "完全個室ブース",
    "hours": "",
    "count": "",
    "price": "",
    "url": "https://e-office.space/spaces/kanto/tokyo/shibuyaku/ebisunishiguchi-by-feeep",
    "latitude": 35.64617904178211,
    "longitude": 139.70857040435848
  },
  {
    "id": "0628-cd7ee6f1e44b",
    "brand": "いいオフィス",
    "company": "",
    "name": "いいオフィス恵比寿",
    "prefecture": "東京都",
    "address": "東京都渋谷区恵比寿1丁目10-6 清園ビル3F / 4F / 5F",
    "station": "恵比寿駅",
    "details": "完全個室ブース",
    "hours": "",
    "count": "",
    "price": "",
    "url": "https://e-office.space/spaces/kanto/tokyo/shibuyaku/ebisu-by-iio",
    "latitude": 35.64687946743773,
    "longitude": 139.71091335769523
  },
  {
    "id": "0628-466e22b76a3d",
    "brand": "いいオフィス",
    "company": "",
    "name": "西新宿Aビル by CHATBOX",
    "prefecture": "東京都",
    "address": "東京都渋谷区本町3丁目39-3 2F",
    "station": "初台駅",
    "details": "完全個室ブース",
    "hours": "",
    "count": "",
    "price": "",
    "url": "https://e-office.space/spaces/kanto/tokyo/shibuyaku/nishishinjuku-abuilding-by-remoteworkbox",
    "latitude": 35.688865723784005,
    "longitude": 139.68182715222923
  },
  {
    "id": "0628-bc7e66cb53bd",
    "brand": "いいオフィス",
    "company": "",
    "name": "カフェ・ド・クリエ グラン 渋谷桜丘スクエア by CHATBOX",
    "prefecture": "東京都",
    "address": "東京都渋谷区桜丘町31‐15 渋谷桜丘スクエア1F",
    "station": "渋谷駅",
    "details": "完全個室ブース",
    "hours": "",
    "count": "",
    "price": "",
    "url": "https://e-office.space/spaces/kanto/tokyo/shibuyaku/cafedecriegran-shibuyasakuragaokasquare-by-remoteworkbox",
    "latitude": 35.65614330584184,
    "longitude": 139.69812415110061
  },
  {
    "id": "0628-5d3677d91d8e",
    "brand": "いいオフィス",
    "company": "",
    "name": "ビズボ渋谷宮益坂 by PaO",
    "prefecture": "東京都",
    "address": "東京都渋谷区渋谷1-12-12",
    "station": "渋谷駅",
    "details": "完全個室ブース",
    "hours": "",
    "count": "",
    "price": "",
    "url": "https://e-office.space/spaces/kanto/tokyo/shibuyaku/bizboshibuyamiyamasuzaka-by-pao",
    "latitude": 35.66008232411558,
    "longitude": 139.7043566669886
  },
  {
    "id": "0628-8d35d43cc721",
    "brand": "いいオフィス",
    "company": "",
    "name": "TKPガーデンシティ渋谷 by CHATBOX",
    "prefecture": "東京都",
    "address": "東京都渋谷区渋谷2-22-3 渋谷東口ビル 1F",
    "station": "渋谷駅",
    "details": "完全個室ブース",
    "hours": "",
    "count": "",
    "price": "",
    "url": "https://e-office.space/spaces/kanto/tokyo/shibuyaku/tkpgardencity-shibuya-by-remoteworkbox",
    "latitude": 35.65861945400556,
    "longitude": 139.7041394275941
  },
  {
    "id": "0628-b23c174f9b65",
    "brand": "いいオフィス",
    "company": "",
    "name": "渋谷駅前ビル店 by FEEEP",
    "prefecture": "東京都",
    "address": "東京都渋谷区道玄坂2-3-1 渋谷駅前ビルB1F",
    "station": "渋谷駅",
    "details": "完全個室ブース",
    "hours": "",
    "count": "",
    "price": "",
    "url": "https://e-office.space/spaces/kanto/tokyo/shibuyaku/shibuyaekimae-by-feeep",
    "latitude": 35.65929172308272,
    "longitude": 139.69987627055934
  },
  {
    "id": "0628-bed1916f30c8",
    "brand": "いいオフィス",
    "company": "",
    "name": "東急プラザ渋谷 by CHATBOX",
    "prefecture": "東京都",
    "address": "東京都渋谷区道玄坂1-2-3 東急プラザ渋谷7階、8階",
    "station": "渋谷駅",
    "details": "完全個室ブース",
    "hours": "",
    "count": "",
    "price": "",
    "url": "https://e-office.space/spaces/kanto/tokyo/shibuyaku/tokyu-plaza-shibuya-by-remoteworkbox",
    "latitude": 35.6577549967122,
    "longitude": 139.70012844108794
  },
  {
    "id": "0628-16a69e6936e1",
    "brand": "いいオフィス",
    "company": "",
    "name": "恵比寿ビジネスタワー by CHATBOX",
    "prefecture": "東京都",
    "address": "東京都渋谷区恵比寿１丁目１９-１９ 恵比寿ビジネスタワー１F",
    "station": "恵比寿駅",
    "details": "完全個室ブース",
    "hours": "",
    "count": "",
    "price": "",
    "url": "https://e-office.space/spaces/kanto/tokyo/shibuyaku/ebisu-businesstower-by-remoteworkbox",
    "latitude": 35.6475266,
    "longitude": 139.7125988
  },
  {
    "id": "0628-b00309294ea0",
    "brand": "いいオフィス",
    "company": "",
    "name": "PaO Work 渋谷道玄坂 by PaO",
    "prefecture": "東京都",
    "address": "東京都渋谷区道玄坂1-17-9 ヴェラハイツ道玄坂1004号室",
    "station": "渋谷駅",
    "details": "完全個室ブース",
    "hours": "",
    "count": "",
    "price": "",
    "url": "https://e-office.space/spaces/kanto/tokyo/shibuyaku/paoworkshibuyadogenzaka-by-pao",
    "latitude": 35.657118194920905,
    "longitude": 139.69687555785785
  },
  {
    "id": "0628-4eb9eb3fce74",
    "brand": "いいオフィス",
    "company": "",
    "name": "個室ワークブース広尾 by PaO",
    "prefecture": "東京都",
    "address": "東京都渋谷区広尾5丁目25-6 シャトー広尾中井ビル202",
    "station": "恵比寿駅",
    "details": "完全個室ブース",
    "hours": "",
    "count": "",
    "price": "",
    "url": "https://e-office.space/spaces/kanto/tokyo/shibuyaku/koshitsuworkboothhiroo-by-pao",
    "latitude": 35.64779599449126,
    "longitude": 139.72155763167348
  },
  {
    "id": "0628-72ec1b82cc6d",
    "brand": "いいオフィス",
    "company": "",
    "name": "SpemaBOX_渋谷明治通りスペマオフィス by PaO",
    "prefecture": "東京都",
    "address": "東京都渋谷区神宮前6丁目25-14 JRE神宮前メディアスクエアビル 2階",
    "station": "渋谷駅",
    "details": "完全個室ブース",
    "hours": "",
    "count": "",
    "price": "",
    "url": "https://e-office.space/spaces/kanto/tokyo/shibuyaku/spemaboxshibuyameijidori-by-pao",
    "latitude": 35.66575411538447,
    "longitude": 139.7028259846942
  },
  {
    "id": "0628-72177c7fb1d9",
    "brand": "いいオフィス",
    "company": "",
    "name": "SpemaBOX_渋谷神南一丁目 by PaO",
    "prefecture": "東京都",
    "address": "東京都渋谷区神南1丁目12-10 シダックスカルチャービレッジ 6階",
    "station": "渋谷駅",
    "details": "完全個室ブース",
    "hours": "",
    "count": "",
    "price": "",
    "url": "https://e-office.space/spaces/kanto/tokyo/shibuyaku/spemaboxshibuyajinnan-by-pao",
    "latitude": 35.66348142805464,
    "longitude": 139.70096498945082
  },
  {
    "id": "0628-d28e0a03cb44",
    "brand": "いいオフィス",
    "company": "",
    "name": "恵比寿 by ライズオフィス恵比寿",
    "prefecture": "東京都",
    "address": "東京都渋谷区東3-22-8 サワダビル7F",
    "station": "恵比寿駅",
    "details": "完全個室ブース",
    "hours": "",
    "count": "",
    "price": "",
    "url": "https://e-office.space/spaces/kanto/tokyo/shibuyaku/ebisu-by-riseoffice",
    "latitude": 35.64965558840511,
    "longitude": 139.70896677397673
  },
  {
    "id": "0628-165751e167b5",
    "brand": "いいオフィス",
    "company": "",
    "name": "BIZ DESK 笹塚駅前 by Pao",
    "prefecture": "東京都",
    "address": "東京都渋谷区笹塚1丁目56-6 クレセントプラザ笹塚",
    "station": "笹塚駅",
    "details": "完全個室ブース",
    "hours": "",
    "count": "",
    "price": "",
    "url": "https://e-office.space/spaces/kanto/tokyo/shibuyaku/bizdesksasazukaekimae-by-pao",
    "latitude": 35.67414286399739,
    "longitude": 139.66746043011904
  },
  {
    "id": "0628-66210918e66c",
    "brand": "いいオフィス",
    "company": "",
    "name": "ヒトリボックス 代々木駅前 by PaO",
    "prefecture": "東京都",
    "address": "東京都渋谷区代々木1-38-1 タムラビル4B",
    "station": "木駅",
    "details": "完全個室ブース",
    "hours": "",
    "count": "",
    "price": "",
    "url": "https://e-office.space/spaces/kanto/tokyo/shibuyaku/hitoriboxyoyogiekimae-by-pao",
    "latitude": 35.68344627381767,
    "longitude": 139.70132306843436
  },
  {
    "id": "0628-3f0044b50a6a",
    "brand": "いいオフィス",
    "company": "",
    "name": "武蔵野 by 公苑前のオフィス",
    "prefecture": "東京都",
    "address": "東京都武蔵野市西久保３丁目11-1 103/104",
    "station": "三鷹駅",
    "details": "完全個室ブース",
    "hours": "",
    "count": "",
    "price": "",
    "url": "https://e-office.space/spaces/kanto/tokyo/musashinoshi/musashino-by-coen-mae",
    "latitude": 35.712106900888344,
    "longitude": 139.56056340807834
  },
  {
    "id": "0628-a6466cc16c1b",
    "brand": "いいオフィス",
    "company": "",
    "name": "いいオフィス吉祥寺",
    "prefecture": "東京都",
    "address": "東京都武蔵野市吉祥寺南町1-5-10 PLATANO吉祥寺７F",
    "station": "吉祥寺駅",
    "details": "完全個室ブース",
    "hours": "",
    "count": "",
    "price": "",
    "url": "https://e-office.space/spaces/kanto/tokyo/musashinoshi/kichijoji-by-iio",
    "latitude": 35.702562878113184,
    "longitude": 139.57894127636064
  },
  {
    "id": "0628-624830f6013d",
    "brand": "いいオフィス",
    "company": "",
    "name": "SpemaBOX_吉祥寺ネクスト by PaO",
    "prefecture": "東京都",
    "address": "東京都武蔵野市吉祥寺南町1丁目1-2",
    "station": "吉祥寺駅",
    "details": "完全個室ブース",
    "hours": "",
    "count": "",
    "price": "",
    "url": "https://e-office.space/spaces/kanto/tokyo/musashinoshi/workboothkichijojinext-by-pao",
    "latitude": 35.70285769629797,
    "longitude": 139.57942137638537
  },
  {
    "id": "0628-b7a8cfca6003",
    "brand": "いいオフィス",
    "company": "",
    "name": "ワークブース吉祥寺 by PaO",
    "prefecture": "東京都",
    "address": "東京都武蔵野市吉祥寺南町1-8-10 エクセレンス吉祥寺406号室",
    "station": "吉祥寺駅",
    "details": "完全個室ブース",
    "hours": "",
    "count": "",
    "price": "",
    "url": "https://e-office.space/spaces/kanto/tokyo/musashinoshi/workboothkichijoji-by-pao",
    "latitude": 35.70197954880723,
    "longitude": 139.57859386342466
  },
  {
    "id": "0628-1cdd8e2db8c0",
    "brand": "いいオフィス",
    "company": "",
    "name": "東高円寺 by ミライノベース",
    "prefecture": "東京都",
    "address": "東京都杉並区高円寺南１丁目２８-５",
    "station": "中野駅",
    "details": "完全個室ブース",
    "hours": "",
    "count": "",
    "price": "",
    "url": "https://e-office.space/spaces/kanto/tokyo/suginamiku/higashikoenji-by-mirainobase",
    "latitude": 35.7003318674209,
    "longitude": 139.66081014485974
  },
  {
    "id": "0628-9bfbacfb5a3b",
    "brand": "いいオフィス",
    "company": "",
    "name": "いいオフィス荻窪",
    "prefecture": "東京都",
    "address": "東京都杉並区上荻1丁目5番2号 コロナビル５F",
    "station": "荻窪駅",
    "details": "完全個室ブース",
    "hours": "",
    "count": "",
    "price": "",
    "url": "https://e-office.space/spaces/kanto/tokyo/suginamiku/ogikubo-by-iio",
    "latitude": 35.7048064385881,
    "longitude": 139.62166608247475
  },
  {
    "id": "0628-f2d8f39f4ea9",
    "brand": "いいオフィス",
    "company": "",
    "name": "いいオフィス高円寺",
    "prefecture": "東京都",
    "address": "東京都杉並区高円寺北2丁目8-1 内田ビル2階",
    "station": "高円寺駅",
    "details": "完全個室ブース",
    "hours": "",
    "count": "",
    "price": "",
    "url": "https://e-office.space/spaces/kanto/tokyo/suginamiku/koenji-by-iio",
    "latitude": 35.706112625471356,
    "longitude": 139.65028970091916
  },
  {
    "id": "0628-520d55f7686a",
    "brand": "いいオフィス",
    "company": "",
    "name": "いいオフィス西荻窪",
    "prefecture": "東京都",
    "address": "東京都杉並区西荻南３丁目10番6号 西荻スカイビル4F",
    "station": "西荻窪駅",
    "details": "個室ブース",
    "hours": "",
    "count": "",
    "price": "",
    "url": "https://e-office.space/spaces/kanto/tokyo/suginamiku/nishiogikubo-by-iio",
    "latitude": 35.70351640323203,
    "longitude": 139.59993098818552
  },
  {
    "id": "0628-c08485438505",
    "brand": "いいオフィス",
    "company": "",
    "name": "ワークブース西荻窪駅前 by Pao",
    "prefecture": "東京都",
    "address": "東京都杉並区西荻南3丁目8-9",
    "station": "ワークブース西荻窪駅",
    "details": "完全個室ブース",
    "hours": "",
    "count": "",
    "price": "",
    "url": "https://e-office.space/spaces/kanto/tokyo/suginamiku/workboothnishiogikubo-by-pao",
    "latitude": 35.70316619829305,
    "longitude": 139.60042440074324
  },
  {
    "id": "0628-dec0d591beb8",
    "brand": "いいオフィス",
    "company": "",
    "name": "自由が丘 by MooGra",
    "prefecture": "東京都",
    "address": "東京都目黒区自由が丘２丁目８-２１ メゾン・クルツB1F",
    "station": "自由が丘駅",
    "details": "個室ブース",
    "hours": "",
    "count": "",
    "price": "",
    "url": "https://e-office.space/spaces/kanto/tokyo/meguroku/jiyugaoka-by-moogra",
    "latitude": 35.610711980894905,
    "longitude": 139.66718567135302
  },
  {
    "id": "0628-662654b14f31",
    "brand": "いいオフィス",
    "company": "",
    "name": "いいオフィス中目黒",
    "prefecture": "東京都",
    "address": "東京都目黒区上目黒3-7-3 アオイハウス中目黒Nビル4A",
    "station": "中目黒駅",
    "details": "完全個室ブース",
    "hours": "",
    "count": "",
    "price": "",
    "url": "https://e-office.space/spaces/kanto/tokyo/meguroku/nakameguro-by-iio",
    "latitude": 35.64395259192489,
    "longitude": 139.69830726099633
  },
  {
    "id": "0628-b3177a9810ee",
    "brand": "いいオフィス",
    "company": "",
    "name": "学芸大学東口店 by FEEEP",
    "prefecture": "東京都",
    "address": "東京都目黒区鷹番3-1-5 グリーンアース1F",
    "station": "学芸大学駅",
    "details": "完全個室ブース",
    "hours": "",
    "count": "",
    "price": "",
    "url": "https://e-office.space/spaces/kanto/tokyo/meguroku/gakugeidaigakuhigashiguchi-by-feeep",
    "latitude": 35.62937667865485,
    "longitude": 139.68602454668843
  },
  {
    "id": "0628-b750aa0b3d34",
    "brand": "いいオフィス",
    "company": "",
    "name": "SpemaBOX_アパマンショップ自由が丘 by PaO",
    "prefecture": "東京都",
    "address": "東京都目黒区自由が丘2-11-5 自由が丘ミドリビル 4階",
    "station": "自由が丘駅",
    "details": "完全個室ブース",
    "hours": "",
    "count": "",
    "price": "",
    "url": "https://e-office.space/spaces/kanto/tokyo/meguroku/paoworkjiyugaoka-by-pao",
    "latitude": 35.60739818930902,
    "longitude": 139.66803381974904
  },
  {
    "id": "0628-7c6ce79e58e4",
    "brand": "いいオフィス",
    "company": "",
    "name": "SoloWork中目黒駅前 by Pao",
    "prefecture": "東京都",
    "address": "東京都目黒区上目黒2-9-35 中目黒GS第2ビル",
    "station": "SoloWork中目黒駅",
    "details": "完全個室ブース",
    "hours": "",
    "count": "",
    "price": "",
    "url": "https://e-office.space/spaces/kanto/tokyo/meguroku/soloworknakameguroekimae-by-Pao",
    "latitude": 35.64309208107262,
    "longitude": 139.69946268823958
  },
  {
    "id": "0628-1587051fcae4",
    "brand": "いいオフィス",
    "company": "",
    "name": "ランドーレジデンス東京スイーツ by CHATBOX",
    "prefecture": "東京都",
    "address": "東京都荒川区荒川4-37-1 1階",
    "station": "町屋駅",
    "details": "完全個室ブース",
    "hours": "",
    "count": "",
    "price": "",
    "url": "https://e-office.space/spaces/kanto/tokyo/arakawaku/randor-residence-tokyo-suites-by-remoteworkbox",
    "latitude": 35.7388933183496,
    "longitude": 139.77814944399336
  },
  {
    "id": "0628-6159ec0af0a8",
    "brand": "いいオフィス",
    "company": "",
    "name": "日暮里MH WORK BOX by PaO",
    "prefecture": "東京都",
    "address": "東京都荒川区西日暮里２丁目２６-８ 4階",
    "station": "西日暮里駅",
    "details": "完全個室ブース",
    "hours": "",
    "count": "",
    "price": "",
    "url": "https://e-office.space/spaces/kanto/tokyo/arakawaku/nipporimhworkbox-by-pao",
    "latitude": 35.73030591276505,
    "longitude": 139.7709174578022
  },
  {
    "id": "0628-21d49783dc55",
    "brand": "いいオフィス",
    "company": "",
    "name": "駅チカ書斎 日暮里 by Pao",
    "prefecture": "東京都",
    "address": "東京都荒川区西日暮里2丁目54-2",
    "station": "西日暮里駅",
    "details": "完全個室ブース",
    "hours": "",
    "count": "",
    "price": "",
    "url": "https://e-office.space/spaces/kanto/tokyo/arakawaku/ekichikashosainippori-by-pao",
    "latitude": 35.73042288034945,
    "longitude": 139.7694560941818
  },
  {
    "id": "0628-62c06c4a6238",
    "brand": "いいオフィス",
    "company": "",
    "name": "ランドーレジデンス東京クラシック by CHATBOX",
    "prefecture": "東京都",
    "address": "東京都荒川区西日暮里1-3-2 1階",
    "station": "町屋駅",
    "details": "完全個室ブース",
    "hours": "",
    "count": "",
    "price": "",
    "url": "https://e-office.space/spaces/kanto/tokyo/arakawaku/randor-residence-tokyo-classic-by-remoteworkBox",
    "latitude": 35.73546192984203,
    "longitude": 139.77723056351965
  },
  {
    "id": "0628-2fcec7c048ff",
    "brand": "いいオフィス",
    "company": "",
    "name": "青梅河辺 by 95NJ",
    "prefecture": "東京都",
    "address": "東京都青梅市河辺町５丁目８-１ サンライズビル２階",
    "station": "河辺駅",
    "details": "完全個室ブース",
    "hours": "",
    "count": "",
    "price": "",
    "url": "https://e-office.space/spaces/kanto/tokyo/oumeshi/oumekabe-by95nj",
    "latitude": 35.783470022906016,
    "longitude": 139.28433920081534
  },